{
  "version": 0.6,
  "generator": "Overpass API 0.7.62.8 e802775f",
  "osm3s": {
    "timestamp_osm_base": "2025-11-30T12:12:00Z",
    "copyright": "The data included in this document is from www.openstreetmap.org. The data is made available under ODbL."
  },
  "elements": [

{
  "type": "node",
  "id": 661970037,
  "lat": 25.9292080,
  "lon": 83.5665555,
  "tags": {
    "amenity": "hospital",
    "healthcare": "hospital"
  }
},
{
  "type": "node",
  "id": 1323428700,
  "lat": 26.7379729,
  "lon": 83.8950480,
  "tags": {
    "amenity": "hospital",
    "healthcare": "hospital",
    "name": "Kushinagar Clinic"
  }
},
{
  "type": "node",
  "id": 1358917799,
  "lat": 25.6102948,
  "lon": 85.1309070,
  "tags": {
    "addr:district": "Patna",
    "addr:postcode": "803210",
    "addr:state": "Bihar",
    "addr:subdistrict": "Belchhi",
    "amenity": "hospital",
    "name": "New Gardinar Road Hospital",
    "source": "OpenGovernmentData"
  }
},
{
  "type": "node",
  "id": 1497390981,
  "lat": 26.7592515,
  "lon": 85.9910239,
  "tags": {
    "amenity": "hospital",
    "name": "Health Post"
  }
},
{
  "type": "node",
  "id": 1938618648,
  "lat": 25.3928575,
  "lon": 85.4928302,
  "tags": {
    "amenity": "hospital",
    "emergency": "no",
    "healthcare": "hospital",
    "name": "Barah Primary Hospital",
    "source": "Bing"
  }
},
{
  "type": "node",
  "id": 1938619007,
  "lat": 25.3711011,
  "lon": 85.5334754,
  "tags": {
    "amenity": "hospital",
    "emergency": "yes",
    "healthcare": "hospital",
    "name": "Harnaut Hospital"
  }
},
{
  "type": "node",
  "id": 1958684029,
  "lat": 25.9226334,
  "lon": 86.7928963,
  "tags": {
    "amenity": "hospital",
    "emergency": "yes",
    "healthcare": "hospital",
    "name": "Main Hospital"
  }
},
{
  "type": "node",
  "id": 1958696319,
  "lat": 25.9092345,
  "lon": 86.7873763,
  "tags": {
    "amenity": "hospital",
    "name": "JB Singh Hospital"
  }
},
{
  "type": "node",
  "id": 2132581290,
  "lat": 26.8861056,
  "lon": 88.1883803,
  "tags": {
    "amenity": "hospital"
  }
},
{
  "type": "node",
  "id": 2155539563,
  "lat": 26.8927337,
  "lon": 88.0715599,
  "tags": {
    "amenity": "hospital",
    "emergency": "no",
    "name": "Phikkal Hospital"
  }
},
{
  "type": "node",
  "id": 2174767695,
  "lat": 25.6141766,
  "lon": 85.1900358,
  "tags": {
    "addr:district": "Patna",
    "addr:full": "P.O. Gulzarbagh",
    "addr:postcode": "800007",
    "addr:state": "Bihar",
    "amenity": "hospital",
    "emergency": "yes",
    "healthcare": "hospital",
    "name": "Tripolia Social Service Hospital",
    "source": "OpenGovernmentData"
  }
},
{
  "type": "node",
  "id": 2344454633,
  "lat": 24.5978494,
  "lon": 88.2654598,
  "tags": {
    "amenity": "hospital",
    "name": "Chapai Nawabganj General Hospital"
  }
},
{
  "type": "node",
  "id": 2344457241,
  "lat": 24.6886618,
  "lon": 88.1600351,
  "tags": {
    "amenity": "hospital",
    "name": "Shibganj Upazila Health Complex"
  }
},
{
  "type": "node",
  "id": 2349378792,
  "lat": 24.9363788,
  "lon": 88.2218319,
  "tags": {
    "amenity": "hospital",
    "name": "Bholarhat Upazila Health Complex"
  }
},
{
  "type": "node",
  "id": 2493910990,
  "lat": 25.5434374,
  "lon": 83.4006007,
  "tags": {
    "addr:city": "Ghazipur",
    "addr:postcode": "233302",
    "addr:street": "Nandganj",
    "amenity": "hospital",
    "emergency": "yes",
    "name": "Government Hospital Nandganj"
  }
},
{
  "type": "node",
  "id": 2639793226,
  "lat": 26.4955581,
  "lon": 83.7819431,
  "tags": {
    "addr:block": "Manjghgawa (DEORIA SADAR)",
    "addr:district": "Deoria",
    "addr:full": "Deoria, Front of Bus stand, Near CMO Office",
    "addr:postcode": "274001",
    "addr:state": "Uttar Pradesh",
    "amenity": "hospital",
    "description": "District Hospital",
    "name": "DWH Deoria",
    "source": "OpenGovernmentData"
  }
},
{
  "type": "node",
  "id": 2643251999,
  "lat": 27.2954348,
  "lon": 87.3199590,
  "tags": {
    "amenity": "hospital",
    "name": "Primary Health Post, Chainpur"
  }
},
{
  "type": "node",
  "id": 2802881628,
  "lat": 26.5382787,
  "lon": 86.7434096,
  "tags": {
    "amenity": "hospital",
    "name": "sachhi nursing home"
  }
},
{
  "type": "node",
  "id": 2802945302,
  "lat": 26.5410338,
  "lon": 86.7543666,
  "tags": {
    "amenity": "hospital"
  }
},
{
  "type": "node",
  "id": 2803058057,
  "lat": 26.5989884,
  "lon": 86.7226564,
  "tags": {
    "amenity": "hospital",
    "name": "unique collage of medecal science and hospital"
  }
},
{
  "type": "node",
  "id": 2803092648,
  "lat": 26.5558210,
  "lon": 86.7469690,
  "tags": {
    "addr:district": "Saptari",
    "addr:place": "Maleth",
    "amenity": "hospital"
  }
},
{
  "type": "node",
  "id": 2837594743,
  "lat": 27.1477905,
  "lon": 87.7657898,
  "tags": {
    "amenity": "hospital",
    "name": "Panchthar Hospital"
  }
},
{
  "type": "node",
  "id": 2841173322,
  "lat": 26.8095561,
  "lon": 87.2675932,
  "tags": {
    "amenity": "hospital",
    "healthcare": "hospital",
    "name": "BP Koirala Institute of Health Science"
  }
},
{
  "type": "node",
  "id": 2879281678,
  "lat": 27.0216168,
  "lon": 87.1208862,
  "tags": {
    "amenity": "hospital",
    "emergency": "yes",
    "name": "hatuwagadi gaupalika"
  }
},
{
  "type": "node",
  "id": 2948362003,
  "lat": 25.6293787,
  "lon": 85.0371613,
  "tags": {
    "amenity": "hospital",
    "healthcare": "hospital"
  }
},
{
  "type": "node",
  "id": 3229720177,
  "lat": 26.6525245,
  "lon": 87.4493976,
  "tags": {
    "addr:housenumber": "34",
    "addr:street": "Laxmimarga-Dangihat Road",
    "amenity": "hospital",
    "emergency": "yes",
    "name": "Laxmimarga-Dangihat hospital"
  }
},
{
  "type": "node",
  "id": 3261546865,
  "lat": 26.6005988,
  "lon": 87.1508363,
  "tags": {
    "amenity": "hospital",
    "internet_access": "wlan",
    "name": "inaruwa hospital"
  }
},
{
  "type": "node",
  "id": 3316604593,
  "lat": 26.5599901,
  "lon": 88.0803749,
  "tags": {
    "amenity": "hospital",
    "name": "ओम साइ पाथिभारा अस्पताल तथा अनुसन्धान केनद्र",
    "name:en": "Om Sai Pathibhara Hospital and Research Center"
  }
},
{
  "type": "node",
  "id": 3431019595,
  "lat": 26.8253483,
  "lon": 87.2870304,
  "tags": {
    "amenity": "hospital",
    "name": "Red Cross Society Office"
  }
},
{
  "type": "node",
  "id": 3455123727,
  "lat": 25.5860309,
  "lon": 85.8873844,
  "tags": {
    "amenity": "hospital",
    "designation": "HOSPITAL",
    "emergency": "yes",
    "healthcare": "hospital",
    "name": "PHC Bachhawara",
    "source": "GOVT HOSPITAL"
  }
},
{
  "type": "node",
  "id": 3485939891,
  "lat": 26.4590078,
  "lon": 87.2908758,
  "tags": {
    "addr:city": "biratnagar",
    "addr:street": "madhumara",
    "amenity": "hospital",
    "name": "R.K children's hospital"
  }
},
{
  "type": "node",
  "id": 3494699580,
  "lat": 27.4111084,
  "lon": 85.3646625,
  "tags": {
    "amenity": "hospital",
    "districtna": "Makwanpur",
    "fixme": "Probably wrong location. Nothing to see on Bing",
    "healthtype": "Sub Health Post",
    "id": "0",
    "source": "UNOCHA",
    "vdccode": "C-NAR-31-005",
    "vdcname": "Betini"
  }
},
{
  "type": "node",
  "id": 3494700138,
  "lat": 27.4446412,
  "lon": 85.2751680,
  "tags": {
    "Fixme": "Seems to be wrongly located. Nothing to see on Bing",
    "amenity": "hospital",
    "districtna": "Makwanpur",
    "healthtype": "Sub Health Post",
    "id": "0",
    "source": "UNOCHA",
    "vdccode": "C-NAR-31-030",
    "vdcname": "Manthali"
  }
},
{
  "type": "node",
  "id": 3506270627,
  "lat": 27.0153436,
  "lon": 84.9755260,
  "tags": {
    "amenity": "hospital"
  }
},
{
  "type": "node",
  "id": 3587864422,
  "lat": 26.7196758,
  "lon": 88.0490912,
  "tags": {
    "amenity": "hospital",
    "name": "Budhabare Health Post"
  }
},
{
  "type": "node",
  "id": 3588100499,
  "lat": 26.7213681,
  "lon": 88.0505173,
  "tags": {
    "amenity": "hospital",
    "name": "Mahila Samudhaik Hospital"
  }
},
{
  "type": "node",
  "id": 3588100500,
  "lat": 26.7190504,
  "lon": 88.0492183,
  "tags": {
    "amenity": "hospital",
    "name": "Ayurbedic Hospital"
  }
},
{
  "type": "node",
  "id": 3666610144,
  "lat": 26.6850027,
  "lon": 87.9910051,
  "tags": {
    "amenity": "hospital",
    "name": "MEDICAL HOUSE"
  }
},
{
  "type": "node",
  "id": 3689951142,
  "lat": 26.9890722,
  "lon": 84.8511368,
  "tags": {
    "addr:district": "East Champaran",
    "addr:full": "Raxaul",
    "addr:postcode": "845305",
    "addr:state": "Bihar",
    "amenity": "hospital",
    "name": "The Duncan Hospital",
    "source": "OpenGovernmentData"
  }
},
{
  "type": "node",
  "id": 3920273527,
  "lat": 24.7366042,
  "lon": 85.0432321,
  "tags": {
    "amenity": "hospital"
  }
},
{
  "type": "node",
  "id": 3965247726,
  "lat": 24.6967871,
  "lon": 84.9802141,
  "tags": {
    "amenity": "hospital",
    "healthcare": "hospital",
    "name": "Bhuripalo Hospital",
    "phone": "+919955819322"
  }
},
{
  "type": "node",
  "id": 4147031666,
  "lat": 27.4654664,
  "lon": 83.4576314,
  "tags": {
    "amenity": "hospital"
  }
},
{
  "type": "node",
  "id": 4300710154,
  "lat": 26.9718870,
  "lon": 87.3437792,
  "tags": {
    "amenity": "hospital",
    "emergency": "yes",
    "source": "survey"
  }
},
{
  "type": "node",
  "id": 4319812767,
  "lat": 26.6860982,
  "lon": 87.9890032,
  "tags": {
    "amenity": "hospital",
    "emergency": "yes",
    "name": "Sankhar Hospital"
  }
},
{
  "type": "node",
  "id": 4398823789,
  "lat": 27.4419931,
  "lon": 85.0792469,
  "tags": {
    "amenity": "hospital",
    "name:en": "Public Health Post",
    "opening_hours": "24/7"
  }
},
{
  "type": "node",
  "id": 4406938590,
  "lat": 26.7376329,
  "lon": 85.9198093,
  "tags": {
    "addr:street": "Ramanand Chowk Road",
    "amenity": "hospital",
    "email": "dr.nagendraprasad@gmail.com",
    "name:en": "Araddhya Hospital Pvt. Ltd. Ramanand Chowk, Janakpur, Nepal.",
    "opening_hours": "24/7",
    "phone": "+9779844274501"
  }
},
{
  "type": "node",
  "id": 4454310593,
  "lat": 26.7177708,
  "lon": 87.6857450,
  "tags": {
    "amenity": "hospital",
    "name:en": "Health center, Beldangi Two(II)"
  }
},
{
  "type": "node",
  "id": 4504643591,
  "lat": 26.4728365,
  "lon": 87.2755094,
  "tags": {
    "addr:street": "Chandani Marg",
    "amenity": "hospital",
    "email": "info@lifeguardhospital.com.np",
    "name": "Lifeguard Hospital",
    "name:en": "Lifeguard Hospital",
    "phone": "00977-021-538812",
    "website": "http://www.lifeguardhospital.com.np/"
  }
},
{
  "type": "node",
  "id": 4554995990,
  "lat": 26.6448607,
  "lon": 87.9980958,
  "tags": {
    "amenity": "hospital",
    "name": "B and C",
    "name:en": "B&C Hospital Pvt. Ltd.",
    "opening_hours": "24/7"
  }
},
{
  "type": "node",
  "id": 4566328893,
  "lat": 26.9904482,
  "lon": 85.8915039,
  "tags": {
    "addr:street": "Bardibas Jaleshwor Highway",
    "amenity": "hospital",
    "name:en": "Subhaswastik hospital pvt ltd"
  }
},
{
  "type": "node",
  "id": 4568796092,
  "lat": 26.7083628,
  "lon": 87.6960080,
  "tags": {
    "amenity": "hospital",
    "email": "dxnhealthcare2016@gmail.com",
    "internet_access": "wlan",
    "name:en": "DXN Health Care, Damak 3",
    "phone": "9807929853"
  }
},
{
  "type": "node",
  "id": 4574681592,
  "lat": 25.5996766,
  "lon": 85.2142469,
  "tags": {
    "addr:postcode": "800006",
    "addr:street": "Ashok Raj Path",
    "amenity": "hospital",
    "healthcare": "hospital",
    "name": "Guru Govind Singh Hospital",
    "name:en": "Guru Govind Singh Hospital"
  }
},
{
  "type": "node",
  "id": 4575672895,
  "lat": 27.0125614,
  "lon": 84.8849547,
  "tags": {
    "addr:street": "Birgunj Busspark",
    "amenity": "hospital",
    "internet_access": "wlan",
    "name:en": "National Care Hospital",
    "opening_hours": "24/7"
  }
},
{
  "type": "node",
  "id": 4581979389,
  "lat": 26.6654297,
  "lon": 87.6038438,
  "tags": {
    "amenity": "hospital",
    "name:en": "Mangalbare Hospital"
  }
},
{
  "type": "node",
  "id": 4582218291,
  "lat": 26.6604174,
  "lon": 87.6994505,
  "tags": {
    "addr:street": "Thana Road",
    "amenity": "hospital",
    "healthcare": "hospital",
    "name:en": "Jhapa Homeopathic Medical centre PVT.LTD",
    "opening_hours": "Mo-Su 08:00-06:00",
    "phone": "023580435"
  }
},
{
  "type": "node",
  "id": 4595661090,
  "lat": 27.0074609,
  "lon": 84.8737322,
  "tags": {
    "amenity": "hospital",
    "name:en": "AMC Hospital"
  }
},
{
  "type": "node",
  "id": 4603449389,
  "lat": 26.6606707,
  "lon": 87.7005302,
  "tags": {
    "addr:postcode": "+977",
    "addr:street": "furniture line",
    "amenity": "hospital",
    "healthcare": "hospital",
    "internet_access": "wlan",
    "name:en": "Ahcc Dmk"
  }
},
{
  "type": "node",
  "id": 4607340590,
  "lat": 27.1290911,
  "lon": 87.5346974,
  "tags": {
    "amenity": "hospital",
    "healthcare": "hospital",
    "name:en": "Terhathum  District Hospital"
  }
},
{
  "type": "node",
  "id": 4609441089,
  "lat": 27.0038274,
  "lon": 84.8716327,
  "tags": {
    "amenity": "hospital",
    "name:en": "Narayani Sub-Regional Hospital Birgunj"
  }
},
{
  "type": "node",
  "id": 4624816990,
  "lat": 26.6489119,
  "lon": 88.1576650,
  "tags": {
    "addr:street": "kakarvitta-Bahundangi",
    "amenity": "hospital",
    "name:en": "Mechi Netralaya Eye Hospital"
  }
},
{
  "type": "node",
  "id": 4624817090,
  "lat": 26.6498244,
  "lon": 88.1580828,
  "tags": {
    "addr:street": "kakarvitta-Bahundangi",
    "amenity": "hospital",
    "name:en": "Machi Netralaya Eye Hospital"
  }
},
{
  "type": "node",
  "id": 4631720892,
  "lat": 26.6447115,
  "lon": 87.9974550,
  "tags": {
    "addr:street": "महेन्द्र राज्मार्ग्",
    "amenity": "hospital",
    "name:en": "B & C Teaching Hospital",
    "opening_hours": "24/7",
    "website": "https://www.bnchospital.edu.np/"
  }
},
{
  "type": "node",
  "id": 4631721492,
  "lat": 26.6443882,
  "lon": 87.9973121,
  "tags": {
    "amenity": "hospital",
    "name:en": "Kankai Hospital"
  }
},
{
  "type": "node",
  "id": 4782289944,
  "lat": 25.6426634,
  "lon": 85.3345210,
  "tags": {
    "addr:city": "Bidupur",
    "addr:postcode": "844503",
    "addr:street": "Bidupur",
    "amenity": "hospital",
    "healthcare": "hospital",
    "name": "Prathmik Hospital Bidupur",
    "operator": "Bihar Government"
  }
},
{
  "type": "node",
  "id": 4791575025,
  "lat": 27.4891213,
  "lon": 83.4486669,
  "tags": {
    "addr:street": "Rani Gaon",
    "amenity": "hospital",
    "healthcare": "hospital",
    "name:en": "Universal College of Medical Sciences",
    "opening_hours": "24/7",
    "phone": "071506052"
  }
},
{
  "type": "node",
  "id": 4810855021,
  "lat": 26.7156035,
  "lon": 85.9307288,
  "tags": {
    "addr:street": "Airport road",
    "amenity": "hospital",
    "name:en": "Sanjivani Hospital"
  }
},
{
  "type": "node",
  "id": 4886164822,
  "lat": 26.9099198,
  "lon": 86.0317008,
  "tags": {
    "addr:street": "महेन्द्र राज्मार्ग्",
    "amenity": "hospital",
    "name:en": "Panchamukhi Nagarik Hospital Pvt. Ltd."
  }
},
{
  "type": "node",
  "id": 4887200021,
  "lat": 26.8153163,
  "lon": 85.9528582,
  "tags": {
    "addr:city": "Chhirreshwornath",
    "addr:street": "Janaki Medical colleege-Ramdiaya-sabaila-paterwa Road",
    "amenity": "hospital",
    "email": "info@janakimedicalcollege.edu.np",
    "healthcare": "hospital",
    "internet_access": "wlan",
    "name": "Hospital Building",
    "name:en": "Janaki Medical College",
    "operator": "Ram Janaki Health Foundation",
    "operator:type": "private",
    "phone": "+977-41-528940",
    "website": "https://www.janakimedicalcollege.edu.np/"
  }
},
{
  "type": "node",
  "id": 4914729121,
  "lat": 26.4582486,
  "lon": 87.2843481,
  "tags": {
    "addr:street": "Rangeli Road",
    "amenity": "hospital",
    "name": "Golden Hospital",
    "name:en": "Golden Hospital",
    "opening_hours": "24/7",
    "phone": "021521809",
    "website": "https://goldenhospital.com.np/"
  }
},
{
  "type": "node",
  "id": 4928684822,
  "lat": 26.9813826,
  "lon": 85.9157196,
  "tags": {
    "amenity": "hospital",
    "name:en": "Lalgad"
  }
},
{
  "type": "node",
  "id": 4992060522,
  "lat": 26.6585166,
  "lon": 88.0994293,
  "tags": {
    "amenity": "hospital",
    "name:en": "Dhulabari Hospital"
  }
},
{
  "type": "node",
  "id": 4992082821,
  "lat": 26.6670044,
  "lon": 88.0946171,
  "tags": {
    "amenity": "hospital",
    "name:en": "Amda Hospital"
  }
},
{
  "type": "node",
  "id": 5045719821,
  "lat": 27.4247410,
  "lon": 86.1776773,
  "tags": {
    "amenity": "hospital",
    "name:en": "Dhobi Health Post"
  }
},
{
  "type": "node",
  "id": 5069579822,
  "lat": 27.3157801,
  "lon": 86.0870840,
  "tags": {
    "addr:postcode": "45400",
    "addr:street": "Ramechhap Bazaar",
    "amenity": "hospital",
    "internet_access": "wlan",
    "name": "Ramechhap District Hospital",
    "name:en": "District Hospital"
  }
},
{
  "type": "node",
  "id": 5069586821,
  "lat": 27.3079490,
  "lon": 86.1453994,
  "tags": {
    "addr:postcode": "45400",
    "addr:street": "Chyasku Bhanjyang",
    "amenity": "hospital",
    "name:en": "Okhreni Health Post"
  }
},
{
  "type": "node",
  "id": 5073656323,
  "lat": 26.6206640,
  "lon": 87.9905366,
  "tags": {
    "amenity": "hospital",
    "name:en": "mechi eye hospital"
  }
},
{
  "type": "node",
  "id": 5119093823,
  "lat": 26.6938469,
  "lon": 86.2827832,
  "tags": {
    "amenity": "hospital",
    "name:en": "अर्नामा स्वास्थ्य चौकी"
  }
},
{
  "type": "node",
  "id": 5148628822,
  "lat": 25.5405736,
  "lon": 87.5615643,
  "tags": {
    "addr:postcode": "854105",
    "addr:street": "New Colony Road",
    "amenity": "hospital",
    "internet_access": "wlan",
    "name": "Katihar Railway Hospital",
    "opening_hours": "24/7"
  }
},
{
  "type": "node",
  "id": 5187710425,
  "lat": 25.3655761,
  "lon": 87.6328676,
  "tags": {
    "amenity": "hospital",
    "name": "Hospital"
  }
},
{
  "type": "node",
  "id": 5207944128,
  "lat": 26.5430531,
  "lon": 86.7408096,
  "tags": {
    "amenity": "hospital",
    "healthcare": "hospital"
  }
},
{
  "type": "node",
  "id": 5207944153,
  "lat": 26.5380402,
  "lon": 86.7428030,
  "tags": {
    "amenity": "hospital",
    "healthcare": "hospital"
  }
},
{
  "type": "node",
  "id": 5207944272,
  "lat": 26.5390874,
  "lon": 86.7435525,
  "tags": {
    "amenity": "hospital",
    "healthcare": "hospital"
  }
},
{
  "type": "node",
  "id": 5227805926,
  "lat": 26.7325957,
  "lon": 85.9203841,
  "tags": {
    "amenity": "hospital",
    "name:en": "Janaki health care and research centre"
  }
},
{
  "type": "node",
  "id": 5248370825,
  "lat": 26.6620578,
  "lon": 87.2772846,
  "tags": {
    "amenity": "hospital",
    "name:en": "Samudayik Hospital"
  }
},
{
  "type": "node",
  "id": 5311018124,
  "lat": 26.8203635,
  "lon": 85.7975045,
  "tags": {
    "amenity": "hospital",
    "name:en": "Ramgopalpur PHCC",
    "opening_hours": "24/7"
  }
},
{
  "type": "node",
  "id": 5311035021,
  "lat": 26.9199585,
  "lon": 85.7861775,
  "tags": {
    "amenity": "hospital",
    "name:en": "Gaushala PHCC, Mahottari"
  }
},
{
  "type": "node",
  "id": 5330416628,
  "lat": 26.8766817,
  "lon": 87.9691129,
  "tags": {
    "addr:street": "Godak Ilam",
    "amenity": "hospital",
    "name": "Primary Health Care Center (Godak)",
    "name:en": "Primary Health Care Center (Godak)",
    "opening_hours": "Su-Fr 10:15-16:15"
  }
},
{
  "type": "node",
  "id": 5330416629,
  "lat": 26.9091887,
  "lon": 87.9266972,
  "tags": {
    "addr:street": "Ilam Nepal",
    "amenity": "hospital",
    "contact:phone": "027-520033",
    "internet_access": "wlan",
    "name": "District Hospital Ilam",
    "name:ne": "जिल्ला अस्पताल ईलाम",
    "opening_hours": "24/7"
  }
},
{
  "type": "node",
  "id": 5372146821,
  "lat": 26.7650320,
  "lon": 85.2740257,
  "tags": {
    "amenity": "hospital",
    "name": "जिल्ला अस्पताल रौतहट",
    "name:en": "District Hospital Rautahat",
    "opening_hours": "24/7"
  }
},
{
  "type": "node",
  "id": 5468509024,
  "lat": 26.6711016,
  "lon": 87.7027482,
  "tags": {
    "amenity": "hospital",
    "name:en": "Damak Hospital"
  }
},
{
  "type": "node",
  "id": 5528225121,
  "lat": 26.6353152,
  "lon": 86.2205761,
  "tags": {
    "amenity": "hospital",
    "name:en": "Laxminiya Hospital, Siraha-18",
    "opening_hours": "Su-Fr 10:00-14:00"
  }
},
{
  "type": "node",
  "id": 5617589821,
  "lat": 26.6355752,
  "lon": 86.2208184,
  "tags": {
    "addr:street": "siraha",
    "amenity": "hospital",
    "name:en": "Siraha-18, Laxminiya",
    "opening_hours": "Su-Fr 10:00-14:00",
    "phone": "9807782792"
  }
},
{
  "type": "node",
  "id": 5629761322,
  "lat": 26.6439959,
  "lon": 87.9840073,
  "tags": {
    "amenity": "hospital",
    "name:en": "Birta City"
  }
},
{
  "type": "node",
  "id": 5675919324,
  "lat": 27.1677688,
  "lon": 86.1923878,
  "tags": {
    "amenity": "hospital",
    "name:en": "Ayurvedic"
  }
},
{
  "type": "node",
  "id": 5698866182,
  "lat": 26.8017660,
  "lon": 86.0896257,
  "tags": {
    "amenity": "hospital",
    "healthcare": "hospital",
    "healthcare:speciality": "general",
    "name": "sabaila health post",
    "operator": "government"
  }
},
{
  "type": "node",
  "id": 5742357822,
  "lat": 27.3006892,
  "lon": 86.5432502,
  "tags": {
    "amenity": "hospital",
    "name:en": "Rumjatar Hospital"
  }
},
{
  "type": "node",
  "id": 5772190755,
  "lat": 26.8097233,
  "lon": 87.2691151,
  "tags": {
    "amenity": "hospital",
    "email": "bpkihs@bpkihs.edu",
    "healthcare": "hospital",
    "name:en": "Obstetric and Gynaecology Department, BPKIHS",
    "phone": "00977025525555",
    "website": "http://www.bpkihs.edu"
  }
},
{
  "type": "node",
  "id": 5791305156,
  "lat": 27.4319484,
  "lon": 85.0311902,
  "tags": {
    "amenity": "hospital",
    "name:en": "Makawanpur sahakari hospital"
  }
},
{
  "type": "node",
  "id": 5815425256,
  "lat": 27.3800555,
  "lon": 86.0611870,
  "tags": {
    "addr:street": "Khurkot Manthali Rd",
    "amenity": "hospital",
    "name:en": "Tamakoshi Hospital"
  }
},
{
  "type": "node",
  "id": 5815490753,
  "lat": 27.3808649,
  "lon": 86.0617377,
  "tags": {
    "addr:street": "Khurkot Manthali Rd",
    "amenity": "hospital",
    "name:en": "District Health Office Manthali Ramechhap"
  }
},
{
  "type": "node",
  "id": 5889746785,
  "lat": 26.6787936,
  "lon": 86.1253693,
  "tags": {
    "addr:street": "Hulaki Sadak",
    "amenity": "hospital",
    "name:en": "Machi Jhitkaiya Health Post",
    "opening_hours": "Su-Fr 10:00-17:00"
  }
},
{
  "type": "node",
  "id": 5919962685,
  "lat": 26.5069008,
  "lon": 87.9290176,
  "tags": {
    "amenity": "hospital",
    "name:en": "Rajgadh ilaka helthpost",
    "name:hi": "राजगढ इलाका स्वास्थ्य चौकी"
  }
},
{
  "type": "node",
  "id": 5933850086,
  "lat": 26.9679329,
  "lon": 87.7858356,
  "tags": {
    "amenity": "hospital",
    "name:en": "Ekatappa Ayruvedic Hospital"
  }
},
{
  "type": "node",
  "id": 5960318686,
  "lat": 27.0372775,
  "lon": 84.8791627,
  "tags": {
    "amenity": "hospital",
    "name:en": "Parsauni  Birta Health Post",
    "opening_hours": "Su-Fr 09:00-17:00"
  }
},
{
  "type": "node",
  "id": 5960318786,
  "lat": 27.0738896,
  "lon": 84.8897138,
  "tags": {
    "amenity": "hospital",
    "name:en": "Maniyari Health Post, Parsa",
    "opening_hours": "Su-Fr 10:00-17:00"
  }
},
{
  "type": "node",
  "id": 5963111385,
  "lat": 27.0593835,
  "lon": 84.8603903,
  "tags": {
    "amenity": "hospital",
    "name:en": "Harpatgunj Health Post"
  }
},
{
  "type": "node",
  "id": 5963111386,
  "lat": 27.0757507,
  "lon": 84.9186257,
  "tags": {
    "amenity": "hospital",
    "name:en": "Lipani Birta Health Post"
  }
},
{
  "type": "node",
  "id": 5977423385,
  "lat": 26.4804953,
  "lon": 86.7696444,
  "tags": {
    "amenity": "hospital",
    "name:en": "Launiya Health Post"
  }
},
{
  "type": "node",
  "id": 5977423386,
  "lat": 26.4732562,
  "lon": 86.7943601,
  "tags": {
    "amenity": "hospital",
    "healthcare": "hospital"
  }
},
{
  "type": "node",
  "id": 5992766286,
  "lat": 26.6450802,
  "lon": 86.9108114,
  "tags": {
    "amenity": "hospital",
    "name:en": "Kanchanpur PHCC"
  }
},
{
  "type": "node",
  "id": 5994478485,
  "lat": 26.7562551,
  "lon": 85.9178845,
  "tags": {
    "amenity": "hospital",
    "name:en": "Manipal Hospital Janakpur"
  }
},
{
  "type": "node",
  "id": 6030969525,
  "lat": 25.5850717,
  "lon": 85.1614754,
  "tags": {
    "addr:district": "Patna",
    "addr:full": "Khemani Chak More, Mahavir Nagar, Kankarbagh",
    "addr:postcode": "800020",
    "addr:state": "Bihar",
    "amenity": "hospital",
    "healthcare": "hospital",
    "name": "Metro Trauma Hospital",
    "source": "OpenGovernmentData"
  }
},
{
  "type": "node",
  "id": 6030988256,
  "lat": 25.6047190,
  "lon": 85.1969136,
  "tags": {
    "amenity": "hospital",
    "healthcare": "hospital",
    "name": "Isha health care"
  }
},
{
  "type": "node",
  "id": 6220848685,
  "lat": 26.6695986,
  "lon": 87.3800687,
  "tags": {
    "amenity": "hospital",
    "name:en": "Sukuna samudaik Hospital"
  }
},
{
  "type": "node",
  "id": 6222990187,
  "lat": 27.0916382,
  "lon": 85.5425283,
  "tags": {
    "amenity": "hospital",
    "healthcare": "hospital",
    "name:en": "hariwan hospital"
  }
},
{
  "type": "node",
  "id": 6241444585,
  "lat": 27.2643887,
  "lon": 85.7328923,
  "tags": {
    "amenity": "hospital",
    "name:en": "Kapilakot sub-health office"
  }
},
{
  "type": "node",
  "id": 6248833587,
  "lat": 26.9358024,
  "lon": 87.6884028,
  "tags": {
    "amenity": "hospital",
    "name:en": "Rabi Primary Health Centre"
  }
},
{
  "type": "node",
  "id": 6248842785,
  "lat": 26.9355803,
  "lon": 87.6883652,
  "tags": {
    "addr:housenumber": "02",
    "addr:postcode": "977",
    "addr:street": "Hospital Road",
    "amenity": "hospital",
    "name:en": "Rabi Primary Health Centre"
  }
},
{
  "type": "node",
  "id": 6248851386,
  "lat": 27.2367511,
  "lon": 87.8261198,
  "tags": {
    "addr:housenumber": "01",
    "addr:postcode": "977",
    "addr:street": "Hospital Road",
    "amenity": "hospital",
    "name:en": "Gopetar PHC ward"
  }
},
{
  "type": "node",
  "id": 6270814094,
  "lat": 26.7098243,
  "lon": 86.4893488,
  "tags": {
    "amenity": "hospital",
    "name": "Friends Model Hospital",
    "name:en": "friends model hospital"
  }
},
{
  "type": "node",
  "id": 6270819093,
  "lat": 26.7087048,
  "lon": 86.4922295,
  "tags": {
    "amenity": "hospital",
    "name": "Sagarmatha Choudhary Eye Hospital",
    "name:en": "sagarmatha Chaudhary eye hospital"
  }
},
{
  "type": "node",
  "id": 6493516285,
  "lat": 27.3708529,
  "lon": 88.2252546,
  "tags": {
    "addr:district": "West Sikkim",
    "addr:postcode": "737113",
    "addr:state": "Sikkim",
    "addr:subdistrict": "Gyalshing",
    "amenity": "hospital",
    "description": "Primary Health Centre",
    "healthcare": "centre",
    "locality": "Yuksam",
    "name": "Yuksam, PHC",
    "source": "OpenGovernmentData"
  }
},
{
  "type": "node",
  "id": 6618249933,
  "lat": 26.2210398,
  "lon": 87.8988285,
  "tags": {
    "amenity": "hospital",
    "name": "PHC Gangi"
  }
},
{
  "type": "node",
  "id": 6664950402,
  "lat": 26.1351309,
  "lon": 87.4663693,
  "tags": {
    "addr:district": "Araria",
    "addr:full": "Treatment Centre",
    "addr:postcode": "854311",
    "addr:state": "Bihar",
    "amenity": "hospital",
    "healthcare": "hospital",
    "name": "The Rural Institute Of Medical Aids",
    "source": "https://data.gov.in"
  }
},
{
  "type": "node",
  "id": 6710890126,
  "lat": 26.2593610,
  "lon": 88.1966872,
  "tags": {
    "addr:city": "Islampur",
    "addr:postcode": "733202",
    "addr:street": "Patagora Road",
    "amenity": "hospital",
    "emergency": "yes",
    "healthcare": "hospital",
    "name": "Lifeline Nursing Home"
  }
},
{
  "type": "node",
  "id": 6710910557,
  "lat": 26.2594922,
  "lon": 88.1963230,
  "tags": {
    "addr:city": "Islampur",
    "addr:housenumber": "43",
    "addr:postcode": "733202",
    "addr:street": "Patagora Road",
    "amenity": "hospital",
    "email": "milanthepatriotrahaman@gmail.com",
    "emergency": "yes",
    "healthcare": "hospital",
    "healthcare:speciality": "surgery;general;neurology;cardiology",
    "name": "Dr. Mustafizur",
    "name:bn": "Dr. Mustafizur",
    "phone": "+919647746835"
  }
},
{
  "type": "node",
  "id": 6772679889,
  "lat": 27.4541600,
  "lon": 84.3206550,
  "tags": {
    "amenity": "hospital",
    "healthcare": "hospital",
    "name": "Baghauda Hospital",
    "name:en": "Baghauda Hospital",
    "name:hi": "बघौडा अस्पताल"
  }
},
{
  "type": "node",
  "id": 6833839456,
  "lat": 25.6196101,
  "lon": 85.1243883,
  "tags": {
    "addr:city": "Patna",
    "addr:postcode": "800001",
    "addr:street": "East Boring Canal Road",
    "amenity": "hospital",
    "healthcare": "hospital",
    "name": "Dr. Sarojini Sinha Memorial Shiv-Shakti Hospital",
    "name:hi": "डॉ। सरोजिनी सिन्हा मेमोरियल शिव-शक्ति अस्पताल"
  }
},
{
  "type": "node",
  "id": 6948466786,
  "lat": 26.9987867,
  "lon": 85.4666872,
  "tags": {
    "amenity": "hospital",
    "healthcare": "hospital",
    "name:en": "Hanumant Hospital Pvt.Ltd"
  }
},
{
  "type": "node",
  "id": 6948470887,
  "lat": 27.0037575,
  "lon": 85.4596654,
  "tags": {
    "amenity": "hospital",
    "name:en": "Barahathawa health-post"
  }
},
{
  "type": "node",
  "id": 6950263842,
  "lat": 24.7826045,
  "lon": 84.9878418,
  "tags": {
    "addr:district": "Gaya",
    "addr:full": "A.P.Colony",
    "addr:postcode": "823001",
    "addr:state": "Bihar",
    "amenity": "hospital",
    "name": "Haddy Hospital and Art Center",
    "source": "OpenGovernmentData"
  }
},
{
  "type": "node",
  "id": 6950279651,
  "lat": 25.7843981,
  "lon": 87.4971665,
  "tags": {
    "addr:district": "Purnia",
    "addr:full": "Line Bazar",
    "addr:postcode": "854301",
    "addr:state": "Bihar",
    "amenity": "hospital",
    "name": "Maa Pancha Devi Stone Hospital",
    "source": "OpenGovernmentData"
  }
},
{
  "type": "node",
  "id": 6950299211,
  "lat": 25.6918187,
  "lon": 85.2140942,
  "tags": {
    "addr:district": "Vaishali",
    "addr:full": "Main Road, Subhash Chowk, Hajipur",
    "addr:postcode": "844101",
    "addr:state": "Bihar",
    "amenity": "hospital",
    "name": "Arogya Hospital",
    "source": "OpenGovernmentData"
  }
},
{
  "type": "node",
  "id": 6950301003,
  "lat": 25.6916374,
  "lon": 85.2030905,
  "tags": {
    "addr:district": "Vaishali",
    "addr:full": "Purani Gandak, Pul Roadjohari Bazar, Hajipur",
    "addr:postcode": "844101",
    "addr:state": "Bihar",
    "amenity": "hospital",
    "name": "Harsh Anand Hospital",
    "source": "OpenGovernmentData"
  }
},
{
  "type": "node",
  "id": 6950314582,
  "lat": 25.3598466,
  "lon": 85.9936342,
  "tags": {
    "addr:district": "Patna",
    "addr:full": "Maranchi Via- Hathidah National Highway -80",
    "addr:postcode": "803301",
    "addr:state": "Bihar",
    "amenity": "hospital",
    "name": "Mahatma Gandhi Hospital, Patna",
    "name:etymology:wikidata": "Q1001",
    "source": "OpenGovernmentData"
  }
},
{
  "type": "node",
  "id": 6950315187,
  "lat": 25.6023905,
  "lon": 85.1434345,
  "tags": {
    "addr:district": "Patna",
    "addr:full": "Near Chiraiyatand Over Bridge, Kankar Bagh",
    "addr:postcode": "800020",
    "addr:state": "Bihar",
    "amenity": "hospital",
    "healthcare": "hospital",
    "name": "Mahavir Arogya Sansthan",
    "source": "OpenGovernmentData"
  }
},
{
  "type": "node",
  "id": 6950330098,
  "lat": 25.5970666,
  "lon": 85.1457296,
  "tags": {
    "addr:district": "Patna",
    "addr:full": "Shyam Path,(Gali No:-10) Chandwari RoadKankarbagh",
    "addr:postcode": "800020",
    "addr:state": "Bihar",
    "amenity": "hospital",
    "name": "Magalam Hospital",
    "source": "OpenGovernmentData"
  }
},
{
  "type": "node",
  "id": 6950335390,
  "lat": 25.4181922,
  "lon": 86.1381591,
  "tags": {
    "addr:district": "Begusarai",
    "addr:full": "Pokhariya",
    "addr:postcode": "851101",
    "addr:state": "Bihar",
    "amenity": "hospital",
    "name": "B. P. Rai Memorial Hospital",
    "source": "OpenGovernmentData"
  }
},
{
  "type": "node",
  "id": 6950344193,
  "lat": 25.6182109,
  "lon": 85.1209135,
  "tags": {
    "addr:district": "Patna",
    "addr:full": "Laxmi Niwas, NearPanchmukhi Mandir, West Boring Canal Road",
    "addr:postcode": "800001",
    "addr:state": "Bihar",
    "amenity": "hospital",
    "name": "L.B.Aparajita Hospital",
    "source": "OpenGovernmentData"
  }
},
{
  "type": "node",
  "id": 6950348703,
  "lat": 25.6175277,
  "lon": 85.1611455,
  "tags": {
    "addr:district": "Patna",
    "addr:full": "Nagar Nausa Lothi, Makhania Kuan Road",
    "addr:postcode": "800004",
    "addr:state": "Bihar",
    "amenity": "hospital",
    "name": "Kumar Nursing Home, Patna",
    "source": "OpenGovernmentData"
  }
},
{
  "type": "node",
  "id": 6950348717,
  "lat": 25.5935884,
  "lon": 85.1517392,
  "tags": {
    "addr:district": "Patna",
    "addr:full": "U/479, Lohia Nagar, Kankarbagh , (100Yds East Of Kankarbagh, Tempo Stand)",
    "addr:postcode": "800020",
    "addr:state": "Bihar",
    "amenity": "hospital",
    "name": "Kiran Nursing Home, Patna",
    "source": "OpenGovernmentData"
  }
},
{
  "type": "node",
  "id": 6950397058,
  "lat": 25.4202028,
  "lon": 86.1365459,
  "tags": {
    "addr:district": "Begusarai",
    "addr:full": "Bari Pokhar, Pokharia",
    "addr:postcode": "851101",
    "addr:state": "Bihar",
    "amenity": "hospital",
    "name": "Mediversal Bone and Joint Hospital",
    "source": "OpenGovernmentData"
  }
},
{
  "type": "node",
  "id": 6950424736,
  "lat": 24.7614750,
  "lon": 84.3578070,
  "tags": {
    "addr:district": "Aurangabad",
    "addr:full": "M G Road",
    "addr:postcode": "824101",
    "addr:state": "Bihar",
    "amenity": "hospital",
    "healthcare": "hospital",
    "name": "Health World Hospital",
    "name:ur": "ہیلتھ ورلڈ ہسپتال",
    "source": "OpenGovernmentData"
  }
},
{
  "type": "node",
  "id": 6950430406,
  "lat": 24.7493116,
  "lon": 84.3665383,
  "tags": {
    "addr:district": "Aurangabad",
    "addr:full": "M.G.Road",
    "addr:postcode": "824101",
    "addr:state": "Bihar",
    "amenity": "hospital",
    "healthcare": "hospital",
    "name": "Pulse Women Hospital",
    "name:ur": "پلس ویمن ہسپتال",
    "source": "OpenGovernmentData"
  }
},
{
  "type": "node",
  "id": 6950451395,
  "lat": 25.4126728,
  "lon": 86.6573198,
  "tags": {
    "addr:district": "Khagaria",
    "addr:full": "Gogri, Jamalpur",
    "addr:postcode": "851205",
    "addr:state": "Bihar",
    "amenity": "hospital",
    "name": "Swastim Hospital And Stone Clinic",
    "source": "OpenGovernmentData"
  }
},
{
  "type": "node",
  "id": 6950498218,
  "lat": 25.2490070,
  "lon": 86.9893304,
  "tags": {
    "addr:district": "Bhagalpur",
    "addr:full": "R.B.B.S.Road",
    "addr:postcode": "812001",
    "addr:state": "Bihar",
    "amenity": "hospital",
    "name": "G.S. Hospital and Endolaparoscopy Centre",
    "source": "OpenGovernmentData"
  }
},
{
  "type": "node",
  "id": 6950525576,
  "lat": 25.5952824,
  "lon": 85.1565163,
  "tags": {
    "addr:district": "Patna",
    "addr:full": "202, M.I.G. (Nort To Malahi Pakari Chowk) Kankarbagh Colony",
    "addr:postcode": "800020",
    "addr:state": "Bihar",
    "amenity": "hospital",
    "name": "Sri Jagannath Sewa Sadan",
    "source": "OpenGovernmentData"
  }
},
{
  "type": "node",
  "id": 6950541875,
  "lat": 25.5930731,
  "lon": 85.1528567,
  "tags": {
    "addr:district": "Patna",
    "addr:full": "B-144, P.C.Colony, NearLohiya Nagar Mount Carmel High School, Kankarbagh",
    "addr:postcode": "800020",
    "addr:state": "Bihar",
    "amenity": "hospital",
    "name": "Sri Sai Lions Netralaya",
    "source": "OpenGovernmentData"
  }
},
{
  "type": "node",
  "id": 6950547265,
  "lat": 25.2403302,
  "lon": 86.9659080,
  "tags": {
    "addr:district": "Bhagalpur",
    "addr:full": "Tatarpur",
    "addr:postcode": "812002",
    "addr:state": "Bihar",
    "amenity": "hospital",
    "name": "Advance Maternity and Infertility Centre",
    "source": "OpenGovernmentData"
  }
},
{
  "type": "node",
  "id": 6950547280,
  "lat": 25.2559268,
  "lon": 86.9855471,
  "tags": {
    "addr:district": "Bhagalpur",
    "addr:full": "Aadampur Chowk",
    "addr:postcode": "812001",
    "addr:state": "Bihar",
    "amenity": "hospital",
    "name": "Tapashwi Hospital",
    "source": "OpenGovernmentData"
  }
},
{
  "type": "node",
  "id": 6950566667,
  "lat": 25.5925198,
  "lon": 85.1567941,
  "tags": {
    "addr:district": "Patna",
    "addr:full": "No. E-139, Doctor's Colony,Lohianagar,NearMalahi Pakri Chowk",
    "addr:postcode": "800020",
    "addr:state": "Bihar",
    "amenity": "hospital",
    "healthcare": "hospital",
    "name": "Sundari Devi Hospital",
    "operator": "Hospital",
    "operator:type": "hospital",
    "source": "OpenGovernmentData"
  }
},
{
  "type": "node",
  "id": 6952948036,
  "lat": 25.4222380,
  "lon": 86.1401964,
  "tags": {
    "addr:district": "Begusarai",
    "addr:full": "Netaji Subhash Chandra Road, Facing N. H.-31, Pokharia",
    "addr:postcode": "851101",
    "addr:state": "Bihar",
    "amenity": "hospital",
    "name": "Advanced Ent and Head Neck Hospital",
    "source": "OpenGovernmentData"
  }
},
{
  "type": "node",
  "id": 6952960342,
  "lat": 25.6038682,
  "lon": 85.1667680,
  "tags": {
    "addr:district": "Patna",
    "addr:full": "NearBahadurpur Railway Crossing, Rajendra Nagar",
    "addr:postcode": "800016",
    "addr:state": "Bihar",
    "amenity": "hospital",
    "name": "A.B. Eye Institute",
    "source": "OpenGovernmentData"
  }
},
{
  "type": "node",
  "id": 6952973034,
  "lat": 24.8025765,
  "lon": 87.0217167,
  "tags": {
    "addr:district": "Banka",
    "addr:full": "Dr.R.K.Singh, NearBus Stand Baunsi",
    "addr:postcode": "813102",
    "addr:state": "Bihar",
    "amenity": "hospital",
    "contact:mobile": "9973756238",
    "name": "Surgery Centre",
    "source": "OpenGovernmentData"
  }
},
{
  "type": "node",
  "id": 6952997645,
  "lat": 25.6139343,
  "lon": 85.1299701,
  "tags": {
    "addr:district": "Patna",
    "addr:full": "East Boring Canal Road, Kidwaipuri",
    "addr:postcode": "800001",
    "addr:state": "Bihar",
    "amenity": "hospital",
    "name": "Child Hospital",
    "source": "OpenGovernmentData"
  }
},
{
  "type": "node",
  "id": 6952997657,
  "lat": 25.6202443,
  "lon": 85.1216566,
  "tags": {
    "addr:district": "Patna",
    "addr:full": "West Boring Canal Road North Anandpuri",
    "addr:postcode": "800001",
    "addr:state": "Bihar",
    "amenity": "hospital",
    "contact:phone": "+91 6122557720",
    "name": "Jeevak Shalya Nilayam",
    "source": "OpenGovernmentData"
  }
},
{
  "type": "node",
  "id": 6952997662,
  "lat": 25.6130926,
  "lon": 85.1133800,
  "tags": {
    "addr:district": "Patna",
    "addr:full": "Rajesh Kumar Path South S.K.Puri",
    "addr:postcode": "800001",
    "addr:state": "Bihar",
    "amenity": "hospital",
    "name": "D N Singh Memorial Trust",
    "source": "OpenGovernmentData"
  }
},
{
  "type": "node",
  "id": 6952997667,
  "lat": 25.6143551,
  "lon": 85.1162083,
  "tags": {
    "addr:district": "Patna",
    "addr:full": "Boring Road",
    "addr:postcode": "800001",
    "addr:state": "Bihar",
    "amenity": "hospital",
    "contact:phone": "+91 2540752",
    "name": "Jyoti Punj Hospital",
    "source": "OpenGovernmentData"
  }
},
{
  "type": "node",
  "id": 6953012407,
  "lat": 25.6018708,
  "lon": 85.1647523,
  "tags": {
    "addr:district": "Patna",
    "addr:full": "Station Road , Phulwarisarif,Kumhrar Rd, Mahatma Gandhi Nagar, Chitragupta Nagar, Patna",
    "addr:postcode": "801505",
    "addr:state": "Bihar",
    "amenity": "hospital",
    "name": "Sahaj Surgery",
    "source": "OpenGovernmentData"
  }
},
{
  "type": "node",
  "id": 6953027542,
  "lat": 25.5950735,
  "lon": 85.1613047,
  "tags": {
    "addr:district": "Patna",
    "addr:full": "Vidyapuri, Kankarbagh",
    "addr:postcode": "800020",
    "addr:state": "Bihar",
    "amenity": "hospital",
    "name": "Srijan Centre For Assisted Human Reproduction",
    "source": "OpenGovernmentData"
  }
},
{
  "type": "node",
  "id": 6953034095,
  "lat": 25.0529472,
  "lon": 83.6049874,
  "tags": {
    "addr:district": "Kaimur (Bhabua)",
    "addr:full": "G.T Road . Mohania",
    "addr:postcode": "821109",
    "addr:state": "Bihar",
    "amenity": "hospital",
    "name": "Sanjeevani Hospital, Kaimur (Bhabua)",
    "source": "OpenGovernmentData"
  }
},
{
  "type": "node",
  "id": 6953034582,
  "lat": 25.6177702,
  "lon": 85.1128985,
  "tags": {
    "addr:district": "Patna",
    "addr:full": "Beside Krishna Apartment , NearA.N.College, Boring Road",
    "addr:postcode": "800013",
    "addr:state": "Bihar",
    "amenity": "hospital",
    "name": "Renu Eye Center",
    "source": "OpenGovernmentData"
  }
},
{
  "type": "node",
  "id": 6953036640,
  "lat": 25.6020379,
  "lon": 85.1588227,
  "tags": {
    "addr:district": "Patna",
    "addr:full": "H/3 Doctors Colony, East Of Rajendra Nagar Over Bridge, Kankarbagh",
    "addr:postcode": "800020",
    "addr:state": "Bihar",
    "amenity": "hospital",
    "contact:phone": "+91 6122361180",
    "name": "Patna Bone And Spine Hospital Pvt Ltd",
    "source": "OpenGovernmentData"
  }
},
{
  "type": "node",
  "id": 6953038393,
  "lat": 25.7853023,
  "lon": 84.7206689,
  "tags": {
    "addr:district": "Saran",
    "addr:full": "Kashi Bazar,Chapra",
    "addr:postcode": "841301",
    "addr:state": "Bihar",
    "amenity": "hospital",
    "name": "Meera Hospital, Saran",
    "source": "OpenGovernmentData"
  }
},
{
  "type": "node",
  "id": 6953040149,
  "lat": 25.7775579,
  "lon": 84.7374217,
  "tags": {
    "addr:district": "Saran",
    "addr:full": "Dahiyawan, Chhapra",
    "addr:postcode": "841301",
    "addr:state": "Bihar",
    "amenity": "hospital",
    "name": "Life Care Hospital, Saran",
    "source": "OpenGovernmentData"
  }
},
{
  "type": "node",
  "id": 6953041891,
  "lat": 25.7829430,
  "lon": 84.7365019,
  "tags": {
    "addr:district": "Saran",
    "addr:full": "Gopeswar Nagar,Chapra",
    "addr:postcode": "841301",
    "addr:state": "Bihar",
    "amenity": "hospital",
    "name": "Baidehi Aarogya Sadan",
    "source": "OpenGovernmentData"
  }
},
{
  "type": "node",
  "id": 6953041905,
  "lat": 25.7879414,
  "lon": 84.7072614,
  "tags": {
    "addr:district": "Saran",
    "addr:full": "Shyam chak,Kashi Bazar,Chapra",
    "addr:postcode": "841301",
    "addr:state": "Bihar",
    "amenity": "hospital",
    "name": "Sanjeevani Nursing Home and Maternity Centre",
    "source": "OpenGovernmentData"
  }
},
{
  "type": "node",
  "id": 6953060687,
  "lat": 25.6119250,
  "lon": 85.1409752,
  "tags": {
    "addr:district": "Patna",
    "addr:full": "Ashraf Clinic Complex,S.P Verma Road",
    "addr:postcode": "800020",
    "addr:state": "Bihar",
    "amenity": "hospital",
    "name": "Ruban Emergency Hospital",
    "source": "OpenGovernmentData"
  }
},
{
  "type": "node",
  "id": 6953102547,
  "lat": 25.6041881,
  "lon": 85.0765264,
  "tags": {
    "addr:district": "Patna",
    "addr:full": "Behind Shiv Mandir Bailery Road Lane Of Rukunpura Masjid",
    "addr:postcode": "800014",
    "addr:state": "Bihar",
    "amenity": "hospital",
    "name": "R N Superspecility Hospital And Research Centre",
    "source": "OpenGovernmentData"
  }
},
{
  "type": "node",
  "id": 6953102552,
  "lat": 25.5997495,
  "lon": 85.1975182,
  "tags": {
    "addr:district": "Patna",
    "addr:full": "Indian council of research, Department of health research, Agamkuan",
    "addr:postcode": "800007",
    "addr:state": "Bihar",
    "amenity": "hospital",
    "name": "Rajendra Memorial Research Institute of Medical Sciences",
    "operator:type": "government",
    "source": "OpenGovernmentData",
    "website": "http://www.rmrims.org.in/"
  }
},
{
  "type": "node",
  "id": 6953102557,
  "lat": 25.6012746,
  "lon": 85.1686026,
  "tags": {
    "addr:district": "Patna",
    "addr:full": "NearBahadurpur Petrol Pump, Old Bypass Road, Kankarbagh",
    "addr:postcode": "800020",
    "addr:state": "Bihar",
    "amenity": "hospital",
    "email": "nfo@rajeshwarhospital.com",
    "healthcare:speciality": "multi speciality",
    "name": "Rajeshwar Hospital, Patna",
    "operator:type": "private",
    "source": "OpenGovernmentData",
    "website": "https://www.rajeshwarhospital.com/"
  }
},
{
  "type": "node",
  "id": 6953134936,
  "lat": 25.6001753,
  "lon": 85.1619651,
  "tags": {
    "addr:district": "Patna",
    "addr:full": "A-5,Patrakar Nagar, Near Back Gate Of Commerce College ,Kankarbagh",
    "addr:postcode": "800004",
    "addr:state": "Bihar",
    "amenity": "hospital",
    "healthcare": "hospital",
    "name": "E N T Hospital and Research Centre",
    "source": "OpenGovernmentData"
  }
},
{
  "type": "node",
  "id": 6953152754,
  "lat": 25.5850694,
  "lon": 85.1617214,
  "tags": {
    "addr:district": "Patna",
    "addr:full": "N. R. Tower, Khemni Chowk, More Mahavir Colony, Hanuman Nagar",
    "addr:postcode": "800020",
    "addr:state": "Bihar",
    "amenity": "hospital",
    "name": "Ishwar Dayal Memorial Hospital",
    "source": "OpenGovernmentData"
  }
},
{
  "type": "node",
  "id": 6953153746,
  "lat": 25.6022304,
  "lon": 85.1500484,
  "tags": {
    "addr:district": "Patna",
    "addr:full": "Eye Microsurgery & Retina Centre, G-9, People `S Co-Operative Colony, Kankarbagh",
    "addr:postcode": "800020",
    "addr:state": "Bihar",
    "amenity": "hospital",
    "name": "Avadh Eye Hospital- Dr Arjun Kumar Singh",
    "source": "OpenGovernmentData"
  }
},
{
  "type": "node",
  "id": 6953154985,
  "lat": 25.5990939,
  "lon": 85.1638444,
  "tags": {
    "addr:district": "Patna",
    "addr:full": "Munna Chowk,Kankarbag",
    "addr:postcode": "800020",
    "addr:state": "Bihar",
    "amenity": "hospital",
    "name": "Patliputra Divine Hospital Pvt Ltd",
    "source": "OpenGovernmentData"
  }
},
{
  "type": "node",
  "id": 6953154986,
  "lat": 25.6112919,
  "lon": 85.1158583,
  "tags": {
    "addr:district": "Patna",
    "addr:full": "Sahdeo Mahto Marg, Sri Krishna Puri, Patna",
    "addr:postcode": "800001",
    "addr:state": "Bihar",
    "amenity": "hospital",
    "name": "Netradham Eye Hospital",
    "source": "OpenGovernmentData"
  }
},
{
  "type": "node",
  "id": 6953154996,
  "lat": 25.6004280,
  "lon": 85.1470698,
  "tags": {
    "addr:district": "Patna",
    "addr:full": "43, Migh, Shalimar Sweets, Infront Of Bata Showroom, Kankar Bagh",
    "addr:postcode": "800020",
    "addr:state": "Bihar",
    "amenity": "hospital",
    "contact:phone": "+91 6122342922",
    "name": "Prakash Hospital, Patna",
    "source": "OpenGovernmentData"
  }
},
{
  "type": "node",
  "id": 6953156869,
  "lat": 25.6303881,
  "lon": 85.1174786,
  "tags": {
    "addr:district": "Patna",
    "addr:full": "East Of Sadaquat Ashram",
    "addr:postcode": "800001",
    "addr:state": "Bihar",
    "amenity": "hospital",
    "healthcare": "hospital",
    "name": "Mahavir Vaatsalya Aspatal",
    "source": "OpenGovernmentData"
  }
},
{
  "type": "node",
  "id": 6953157150,
  "lat": 25.5842409,
  "lon": 85.1630216,
  "tags": {
    "addr:district": "Patna",
    "addr:full": "New Bypass (NH-30), Khemnichak, PO - New Jaganpura, PS - Ramkrishna Nagar",
    "addr:postcode": "800027",
    "addr:state": "Bihar",
    "amenity": "hospital",
    "email": "admin@fordhospital.org; info@fordhospital.org",
    "healthcare": "hospital",
    "healthcare:speciality": "multi speciality",
    "name": "Ford Hospital",
    "operator:type": "private",
    "source": "OpenGovernmentData",
    "website": "https://fordhospital.org/"
  }
},
{
  "type": "node",
  "id": 6953160027,
  "lat": 25.5971515,
  "lon": 85.1597567,
  "tags": {
    "addr:district": "Patna",
    "addr:full": "B-24, Sachivalay Colony, Kankarbagh",
    "addr:postcode": "800020",
    "addr:state": "Bihar",
    "amenity": "hospital",
    "healthcare": "hospital",
    "name": "Hope Child Care and Research Centre",
    "source": "OpenGovernmentData"
  }
},
{
  "type": "node",
  "id": 6953167218,
  "lat": 25.5999994,
  "lon": 85.1596020,
  "tags": {
    "addr:district": "Patna",
    "addr:full": "Chandralaya, Kankarbagh Between Central School & Rajendra Nagar Bridge",
    "addr:postcode": "800020",
    "addr:state": "Bihar",
    "amenity": "hospital",
    "name": "Heart Hospital, Patna",
    "source": "OpenGovernmentData"
  }
},
{
  "type": "node",
  "id": 6953173205,
  "lat": 25.5982047,
  "lon": 85.1798869,
  "tags": {
    "addr:district": "Patna",
    "addr:full": "Bhagwat Nagar, Nayatola,Kumhrar,West Of Kumhrar Park",
    "addr:postcode": "800026",
    "addr:state": "Bihar",
    "amenity": "hospital",
    "name": "I Care Eye Hospital and Research Centre",
    "source": "OpenGovernmentData"
  }
},
{
  "type": "node",
  "id": 6953174273,
  "lat": 25.6280231,
  "lon": 85.1051067,
  "tags": {
    "addr:district": "Patna",
    "addr:full": "173, Patliputra Colony",
    "addr:postcode": "800001",
    "addr:state": "Bihar",
    "amenity": "hospital",
    "check_date": "2024-08-01",
    "contact:mobile": "9835889994",
    "name": "Chand Memorial Hospital",
    "source": "OpenGovernmentData"
  }
},
{
  "type": "node",
  "id": 6953174278,
  "lat": 25.6290981,
  "lon": 85.1082650,
  "tags": {
    "addr:district": "Patna",
    "addr:full": "40, Patliputra colony",
    "addr:postcode": "800013",
    "addr:state": "Bihar",
    "amenity": "hospital",
    "contact:phone": "+91 9204323716",
    "email": "sahyoghospitalpatna@yahoo.com; info@sahyoghospital.com",
    "healthcare:speciality": "multi speciality",
    "name": "Sahyog Hospital, Patna",
    "operator:type": "private",
    "source": "OpenGovernmentData",
    "website": "http://www.sahyoghospital.com"
  }
},
{
  "type": "node",
  "id": 6953174729,
  "lat": 25.5989875,
  "lon": 85.1572783,
  "tags": {
    "addr:district": "Patna",
    "addr:full": "DS - 2, Lohiya Nagar, Behind Geological Survey of India, Kankarbagh",
    "addr:postcode": "800020",
    "addr:state": "Bihar",
    "amenity": "hospital",
    "email": "info@jagdishhospital.com; dralok@jagdishhospital.com",
    "healthcare:speciality": "multi speciality",
    "name": "Jagdish Memorial Hospital",
    "operator:type": "private",
    "source": "OpenGovernmentData",
    "website": "http://www.jagdishhospital.com"
  }
},
{
  "type": "node",
  "id": 6953183747,
  "lat": 25.5739787,
  "lon": 85.0691772,
  "tags": {
    "addr:district": "Patna",
    "addr:full": "Gulistan Mohalla Isapur Road Phulwari Sharif",
    "addr:postcode": "801505",
    "addr:state": "Bihar",
    "amenity": "hospital",
    "name": "Life Care Maternity Home",
    "source": "OpenGovernmentData"
  }
},
{
  "type": "node",
  "id": 6953197527,
  "lat": 25.5781821,
  "lon": 85.0721095,
  "tags": {
    "addr:district": "Patna",
    "addr:full": "Imarat Shariah Complex Phulwari Sharif",
    "addr:postcode": "801505",
    "addr:state": "Bihar",
    "amenity": "hospital",
    "name": "Maulana Sajjad Memorial Hospital",
    "source": "OpenGovernmentData"
  }
},
{
  "type": "node",
  "id": 6953226428,
  "lat": 25.6087892,
  "lon": 85.1594519,
  "tags": {
    "addr:district": "Patna",
    "addr:full": "Arya Kumar , Rajendra Nagar Road",
    "addr:postcode": "800016",
    "addr:state": "Bihar",
    "amenity": "hospital",
    "name": "New Born Care Centre (P) Ltd",
    "source": "OpenGovernmentData"
  }
},
{
  "type": "node",
  "id": 6953239472,
  "lat": 25.5989339,
  "lon": 85.2273509,
  "tags": {
    "addr:district": "Patna",
    "addr:full": "Indralok, Dharamshala Chowk",
    "addr:postcode": "800008",
    "addr:state": "Bihar",
    "amenity": "hospital",
    "contact:phone": "+91 9308129667",
    "name": "Manokamna Health Care",
    "source": "OpenGovernmentData"
  }
},
{
  "type": "node",
  "id": 6953242898,
  "lat": 26.1221777,
  "lon": 85.3557068,
  "tags": {
    "addr:district": "Muzaffarpur",
    "addr:full": "Bhagwanpur, Near(High School Road Sadar)",
    "addr:postcode": "842001",
    "addr:state": "Bihar",
    "amenity": "hospital",
    "name": "Pragya Sewa Sansthan",
    "source": "OpenGovernmentData"
  }
},
{
  "type": "node",
  "id": 6953242903,
  "lat": 26.1221090,
  "lon": 85.3823881,
  "tags": {
    "addr:district": "Muzaffarpur",
    "addr:full": "Sadar Hospital.NearBy Rly.Station",
    "addr:postcode": "842001",
    "addr:state": "Bihar",
    "amenity": "hospital",
    "contact:mobile": "9470003500",
    "name": "Sadar Hospital Muzaffarpur",
    "name:hi": "मुजफ्फरपुर सदर अस्पताल",
    "source": "OpenGovernmentData"
  }
},
{
  "type": "node",
  "id": 6953242904,
  "lat": 26.1245678,
  "lon": 85.4006807,
  "tags": {
    "addr:district": "Muzaffarpur",
    "addr:full": "Pakki Sarai, Jail Road",
    "addr:postcode": "842001",
    "addr:state": "Bihar",
    "amenity": "hospital",
    "name": "Shahjahan Memorial Hospital",
    "source": "OpenGovernmentData"
  }
},
{
  "type": "node",
  "id": 6953242914,
  "lat": 26.4179788,
  "lon": 85.0519493,
  "tags": {
    "addr:district": "East Champaran",
    "addr:full": "Madhuban Road Barachakia,Chakia",
    "addr:postcode": "845412",
    "addr:state": "Bihar",
    "amenity": "hospital",
    "name": "Osho Healing Space",
    "source": "OpenGovernmentData"
  }
},
{
  "type": "node",
  "id": 6953243023,
  "lat": 25.9692798,
  "lon": 85.0991401,
  "tags": {
    "addr:district": "Muzaffarpur",
    "addr:full": "Vill-Mansurpurlaljang Vaisali",
    "addr:postcode": "843101",
    "addr:state": "Bihar",
    "amenity": "hospital",
    "name": "Jeevan Rekha Arogya Sansthn",
    "source": "OpenGovernmentData"
  }
},
{
  "type": "node",
  "id": 6953260426,
  "lat": 25.5945748,
  "lon": 85.1482060,
  "tags": {
    "addr:district": "Patna",
    "addr:full": "B-150, Housing Colony, Kankarbagh NearTempo Stand",
    "addr:postcode": "800020",
    "addr:state": "Bihar",
    "amenity": "hospital",
    "name": "Om Eye Clinic and Phaco Centre - Patna",
    "source": "OpenGovernmentData"
  }
},
{
  "type": "node",
  "id": 6953271962,
  "lat": 26.6396219,
  "lon": 84.9130180,
  "tags": {
    "addr:district": "East Champaran",
    "addr:full": "Belwa Chowk,NearRailway Crossing ,Motihari",
    "addr:postcode": "845401",
    "addr:state": "Bihar",
    "amenity": "hospital",
    "name": "Yogendra Giri Sewa Ashram",
    "source": "OpenGovernmentData"
  }
},
{
  "type": "node",
  "id": 6953275898,
  "lat": 26.6394081,
  "lon": 84.9233095,
  "tags": {
    "addr:district": "East Champaran",
    "addr:full": "Chota Bariarpur, Nh-28 A, Motihari",
    "addr:postcode": "845401",
    "addr:state": "Bihar",
    "amenity": "hospital",
    "name": "Banarsidas Chandiwala Eye Hospital",
    "source": "OpenGovernmentData"
  }
},
{
  "type": "node",
  "id": 6953291244,
  "lat": 25.5356294,
  "lon": 87.5751255,
  "tags": {
    "addr:district": "Katihar",
    "addr:full": "Nayatola",
    "addr:postcode": "854105",
    "addr:state": "Bihar",
    "amenity": "hospital",
    "name": "Y F A Hospital and Research Centre",
    "source": "OpenGovernmentData"
  }
},
{
  "type": "node",
  "id": 6953305826,
  "lat": 25.2249025,
  "lon": 84.2635580,
  "tags": {
    "addr:district": "Rohtas",
    "addr:full": "Dumraon Road,Bikramganj",
    "addr:postcode": "802212",
    "addr:state": "Bihar",
    "amenity": "hospital",
    "name": "Rita Memorial Hospital",
    "source": "OpenGovernmentData"
  }
},
{
  "type": "node",
  "id": 6953321932,
  "lat": 25.2002440,
  "lon": 85.5178260,
  "tags": {
    "addr:district": "Nalanda",
    "addr:full": "Ranchi Road .Biharsarif",
    "addr:postcode": "803101",
    "addr:state": "Bihar",
    "amenity": "hospital",
    "name": "Mamta Mother and Child Hospital(P)Ltd.",
    "source": "OpenGovernmentData"
  }
},
{
  "type": "node",
  "id": 6953323380,
  "lat": 25.0141660,
  "lon": 85.4088348,
  "tags": {
    "addr:district": "Nalanda",
    "addr:full": "Veerayatan/ Rajghir",
    "addr:postcode": "803116",
    "addr:state": "Bihar",
    "amenity": "hospital",
    "name": "Netra Jyoti Seva Mandiram",
    "source": "OpenGovernmentData"
  }
},
{
  "type": "node",
  "id": 6953323424,
  "lat": 25.7819862,
  "lon": 87.4891841,
  "tags": {
    "addr:district": "Purnia",
    "addr:full": "Line Bazar",
    "addr:postcode": "854301",
    "addr:state": "Bihar",
    "amenity": "hospital",
    "name": "Alfa Hospital Of Bone and Spine",
    "source": "OpenGovernmentData"
  }
},
{
  "type": "node",
  "id": 6953344035,
  "lat": 25.2063362,
  "lon": 85.5265380,
  "tags": {
    "addr:district": "Nalanda",
    "addr:full": "Naisarai Biharsarif",
    "addr:postcode": "803101",
    "addr:state": "Bihar",
    "amenity": "hospital",
    "name": "Prasad Nethralaya",
    "source": "OpenGovernmentData"
  }
},
{
  "type": "node",
  "id": 6953355601,
  "lat": 25.3743481,
  "lon": 86.1600439,
  "tags": {
    "addr:district": "Begusarai",
    "addr:full": "Block Office, Matihani",
    "addr:postcode": "851129",
    "addr:state": "Bihar",
    "amenity": "hospital",
    "name": "Matihani Referal",
    "source": "OpenGovernmentData"
  }
},
{
  "type": "node",
  "id": 6953365280,
  "lat": 25.7841224,
  "lon": 87.4920782,
  "tags": {
    "addr:district": "Purnia",
    "addr:full": "Line Bazar, Nh31",
    "addr:postcode": "854301",
    "addr:state": "Bihar",
    "amenity": "hospital",
    "name": "Laxmi Seva Sadan",
    "source": "OpenGovernmentData"
  }
},
{
  "type": "node",
  "id": 6953374036,
  "lat": 25.5933759,
  "lon": 85.1562005,
  "tags": {
    "addr:district": "Patna",
    "addr:full": "E-9, R.B.I Colony, Kankarbagh, NearPani Tanki",
    "addr:postcode": "800020",
    "addr:state": "Bihar",
    "amenity": "hospital",
    "healthcare": "hospital",
    "name": "Nav Sharda Aspatal Pvt Ltd",
    "operator": "Hospital",
    "source": "OpenGovernmentData"
  }
},
{
  "type": "node",
  "id": 6953374041,
  "lat": 26.4431129,
  "lon": 85.9033146,
  "tags": {
    "addr:district": "Madhubani",
    "addr:full": "Benipatti",
    "addr:postcode": "847223",
    "addr:state": "Bihar",
    "amenity": "hospital",
    "name": "Astha Hospital",
    "source": "OpenGovernmentData"
  }
},
{
  "type": "node",
  "id": 6953384941,
  "lat": 25.5906052,
  "lon": 85.1595507,
  "tags": {
    "addr:district": "Patna",
    "addr:full": "K-208, P.C Colony ,Hanuman Nagar, Kankarbagh",
    "addr:postcode": "800020",
    "addr:state": "Bihar",
    "amenity": "hospital",
    "name": "Shubham Maternity Centre",
    "source": "OpenGovernmentData"
  }
},
{
  "type": "node",
  "id": 6953398790,
  "lat": 26.1668056,
  "lon": 85.3935222,
  "tags": {
    "addr:district": "Muzaffarpur",
    "addr:full": "P.O.Umanagar",
    "addr:postcode": "842004",
    "addr:state": "Bihar",
    "amenity": "hospital",
    "contact:nodal_officer_email": "hodmicrobiologyskmcmui@gmail.com",
    "contact:nodal_officer_mobile": "9835279484",
    "name": "Sri Krishna Memorial College and Hospital",
    "operator:type": "government",
    "source": "OpenGovernmentData"
  }
},
{
  "type": "node",
  "id": 6953422926,
  "lat": 25.2499622,
  "lon": 86.9877297,
  "tags": {
    "addr:district": "Bhagalpur",
    "addr:full": "Mahatama Gandhi Path,Kacheri Road",
    "addr:postcode": "812001",
    "addr:state": "Bihar",
    "amenity": "hospital",
    "name": "Shrishti Nursing Home",
    "source": "OpenGovernmentData"
  }
},
{
  "type": "node",
  "id": 6953448539,
  "lat": 25.6918550,
  "lon": 85.2039246,
  "tags": {
    "addr:district": "Vaishali",
    "addr:full": "Purani Gandak,Pul Roadjohari Bazar,Hajipur",
    "addr:postcode": "844101",
    "addr:state": "Bihar",
    "amenity": "hospital",
    "name": "Kailash Hospital, Vaishali",
    "source": "OpenGovernmentData"
  }
},
{
  "type": "node",
  "id": 6953484250,
  "lat": 25.6095814,
  "lon": 85.0914318,
  "tags": {
    "addr:district": "Patna",
    "addr:full": "Sheikhpura Bagicha, Bailey Road , Raja Bazar",
    "addr:postcode": "800001",
    "addr:state": "Bihar",
    "amenity": "hospital",
    "name": "Max Care Hospital And Research Institute Pvt. Ltd.",
    "source": "OpenGovernmentData"
  }
},
{
  "type": "node",
  "id": 6953501013,
  "lat": 26.9340006,
  "lon": 84.3052813,
  "tags": {
    "addr:district": "West Champaran",
    "addr:full": "Main Road, Nawalpur Bazar, Machhali Hatta, Bus Stand, Jogapatti",
    "addr:postcode": "845452",
    "addr:state": "Bihar",
    "amenity": "hospital",
    "name": "Shivam Memorial Hospital",
    "source": "OpenGovernmentData"
  }
},
{
  "type": "node",
  "id": 6953506026,
  "lat": 24.7910519,
  "lon": 84.9921508,
  "tags": {
    "addr:district": "Gaya",
    "addr:full": "Road No, 03 NearClub , White House Compound",
    "addr:postcode": "823001",
    "addr:state": "Bihar",
    "amenity": "hospital",
    "name": "Advanced Eye Care Centre",
    "source": "OpenGovernmentData"
  }
},
{
  "type": "node",
  "id": 6953517715,
  "lat": 25.5881285,
  "lon": 85.0545135,
  "tags": {
    "addr:district": "Patna",
    "addr:full": "Haridaspur,Rukanpura-Khagaul Road (Nahar Road) Opposite Pillar No.- 46 , (Near Kali Mandir) Khagaul",
    "addr:postcode": "801105",
    "addr:state": "Bihar",
    "amenity": "hospital",
    "contact:mobile": "8825214450",
    "name": "Ashutosh Memorial Hospital",
    "source": "OpenGovernmentData",
    "website": "https://hairtransplantationpatna.com/"
  }
},
{
  "type": "node",
  "id": 6953517815,
  "lat": 25.8759287,
  "lon": 85.0429315,
  "tags": {
    "addr:district": "Nalanda",
    "addr:full": "Vill+Post Mastichak, Dariyapur",
    "addr:postcode": "841219",
    "addr:state": "Bihar",
    "amenity": "hospital",
    "name": "Akhand Jyoti Eye Hospital",
    "source": "OpenGovernmentData",
    "website": "https://www.akhandjyoti.org/"
  }
},
{
  "type": "node",
  "id": 6953531457,
  "lat": 26.7975012,
  "lon": 84.4959261,
  "tags": {
    "addr:district": "West Champaran",
    "addr:full": "Kotwali Chowk, Bettiah",
    "addr:postcode": "845438",
    "addr:state": "Bihar",
    "amenity": "hospital",
    "healthcare": "hospital",
    "name": "Tiwary Shyama Hospital",
    "source": "OpenGovernmentData"
  }
},
{
  "type": "node",
  "id": 6956312377,
  "lat": 25.6000205,
  "lon": 85.1599611,
  "tags": {
    "addr:district": "Patna",
    "addr:full": "N-7, Patrakar Nagar, Kankarbagh",
    "addr:postcode": "800020",
    "addr:state": "Bihar",
    "amenity": "hospital",
    "name": "Chanakya Hospital",
    "source": "OpenGovernmentData"
  }
},
{
  "type": "node",
  "id": 6956332161,
  "lat": 25.5861879,
  "lon": 85.1582921,
  "tags": {
    "addr:district": "Patna",
    "addr:full": "40, Mig, Kankarbagh",
    "addr:postcode": "800020",
    "addr:state": "Bihar",
    "amenity": "hospital",
    "name": "Adarsh Life Care Hospital Pvt. Ltd",
    "source": "OpenGovernmentData"
  }
},
{
  "type": "node",
  "id": 6956354571,
  "lat": 26.2264977,
  "lon": 84.3629157,
  "tags": {
    "addr:district": "Siwan",
    "addr:full": "Mm Colony",
    "addr:postcode": "841226",
    "addr:state": "Bihar",
    "amenity": "hospital",
    "name": "Al Jilani Eye Care Centre",
    "source": "OpenGovernmentData"
  }
},
{
  "type": "node",
  "id": 6956367384,
  "lat": 25.6201633,
  "lon": 85.0433367,
  "tags": {
    "addr:district": "Patna",
    "addr:full": "Bailey Road Shaikhpura, Raja Bazar",
    "addr:postcode": "800014",
    "addr:state": "Bihar",
    "amenity": "hospital",
    "email": "drbimalkr@yahoo.co.in",
    "healthcare:speciality": "Gastro Surgery; Gastrology; General Medicine; General Surgery; Obstetrics and Gynaecology; Orthopaedics; Paediatrics; Urology",
    "name": "Dr. Vimal Hospital and Research Center",
    "operator:type": "private",
    "source": "OpenGovernmentData",
    "website": "http://www.bimalhospital.com"
  }
},
{
  "type": "node",
  "id": 6956367612,
  "lat": 25.5942693,
  "lon": 85.1593825,
  "tags": {
    "addr:district": "Patna",
    "addr:full": "Kankarbagh",
    "addr:postcode": "800020",
    "addr:state": "Bihar",
    "amenity": "hospital",
    "name": "Swasti Womens Hospital And Research Centre",
    "source": "OpenGovernmentData"
  }
},
{
  "type": "node",
  "id": 6956369600,
  "lat": 25.5951268,
  "lon": 85.1614639,
  "tags": {
    "addr:district": "Patna",
    "addr:full": "Vidyapuri, Kankarbagh",
    "addr:postcode": "800020",
    "addr:state": "Bihar",
    "amenity": "hospital",
    "name": "Shivam Hospital And Research Institute Pvt Ltd",
    "source": "OpenGovernmentData"
  }
},
{
  "type": "node",
  "id": 6956370637,
  "lat": 25.5981687,
  "lon": 85.2273356,
  "tags": {
    "addr:district": "Patna",
    "addr:full": "Chowk, City",
    "addr:postcode": "800008",
    "addr:state": "Bihar",
    "amenity": "hospital",
    "name": "R.P. Golwara Memorial Hospital",
    "source": "OpenGovernmentData"
  }
},
{
  "type": "node",
  "id": 6956377299,
  "lat": 25.5938920,
  "lon": 85.1585900,
  "tags": {
    "addr:district": "Patna",
    "addr:full": "Vidayapuri, Kankarbagh",
    "addr:postcode": "800020",
    "addr:state": "Bihar",
    "amenity": "hospital",
    "name": "Child Care Center",
    "source": "OpenGovernmentData"
  }
},
{
  "type": "node",
  "id": 6956403740,
  "lat": 26.5873780,
  "lon": 85.5015677,
  "tags": {
    "addr:district": "Sitamarhi",
    "addr:full": "Rajopatti,Dumra Road",
    "addr:postcode": "843302",
    "addr:state": "Bihar",
    "amenity": "hospital",
    "name": "Adarsh Sukh Sagar Hospital",
    "source": "OpenGovernmentData"
  }
},
{
  "type": "node",
  "id": 6956467912,
  "lat": 25.5874570,
  "lon": 85.1676982,
  "tags": {
    "addr:district": "Patna",
    "addr:full": "New By Pass, Vijay Nagar (90 Feet Road), Kankarbagh",
    "addr:postcode": "800020",
    "addr:state": "Bihar",
    "amenity": "hospital",
    "name": "Shanti Navjeevan Hospital Pvt. Ltd.",
    "source": "OpenGovernmentData"
  }
},
{
  "type": "node",
  "id": 6956488124,
  "lat": 26.2206127,
  "lon": 86.0793963,
  "tags": {
    "addr:district": "Madhubani",
    "addr:full": "Sakri",
    "addr:postcode": "847239",
    "addr:state": "Bihar",
    "amenity": "hospital",
    "name": "Haider Hospital and Reasearch Center",
    "source": "OpenGovernmentData"
  }
},
{
  "type": "node",
  "id": 6956488131,
  "lat": 26.1404596,
  "lon": 85.3679739,
  "tags": {
    "addr:district": "Muzzffarpur",
    "addr:full": "New Police Line Road Dawod Kothi",
    "addr:postcode": "800002",
    "addr:state": "Bihar",
    "amenity": "hospital",
    "name": "Saraswati Hospital and Research Centre",
    "source": "OpenGovernmentData"
  }
},
{
  "type": "node",
  "id": 6956501299,
  "lat": 25.4898229,
  "lon": 85.3884622,
  "tags": {
    "addr:district": "Patna",
    "addr:full": "Khusrupur",
    "addr:postcode": "803202",
    "addr:state": "Bihar",
    "amenity": "hospital",
    "name": "Central Hospital",
    "source": "OpenGovernmentData"
  }
},
{
  "type": "node",
  "id": 6956501304,
  "lat": 25.5755183,
  "lon": 85.0648906,
  "tags": {
    "addr:district": "Patna",
    "addr:full": "Nh 98,Janipur road",
    "addr:postcode": "801505",
    "addr:state": "Bihar",
    "amenity": "hospital",
    "name": "K.B. Hospital and Research Institute - Patna",
    "source": "OpenGovernmentData"
  }
},
{
  "type": "node",
  "id": 6956507174,
  "lat": 25.5961515,
  "lon": 85.1580005,
  "tags": {
    "addr:district": "Patna",
    "addr:full": "0/543, Sachvlaya Colony Kankarbagh",
    "addr:postcode": "800020",
    "addr:state": "Bihar",
    "amenity": "hospital",
    "name": "Uma Foundation",
    "source": "OpenGovernmentData"
  }
},
{
  "type": "node",
  "id": 6956553412,
  "lat": 25.6062332,
  "lon": 85.1611045,
  "tags": {
    "addr:district": "Patna",
    "addr:full": "Patliputra Path, Rajendra Nagar",
    "addr:postcode": "800016",
    "addr:state": "Bihar",
    "amenity": "hospital",
    "name": "Shanti Maternity Centre",
    "source": "OpenGovernmentData"
  }
},
{
  "type": "node",
  "id": 6956553417,
  "lat": 25.6183579,
  "lon": 85.1630652,
  "tags": {
    "addr:district": "Patna",
    "addr:full": "Khazanchi Road Opposite Ram Mohan Ray Saminary School,Po-Bankipore",
    "addr:postcode": "800004",
    "addr:state": "Bihar",
    "amenity": "hospital",
    "name": "Anupama Hospital Pvt. Ltd.",
    "source": "OpenGovernmentData"
  }
},
{
  "type": "node",
  "id": 6956559841,
  "lat": 25.5799031,
  "lon": 83.9929542,
  "tags": {
    "addr:district": "Buxar",
    "addr:full": "Golambar,Main Road",
    "addr:postcode": "802101",
    "addr:state": "Bihar",
    "amenity": "hospital",
    "name": "V K Global Hospital",
    "source": "OpenGovernmentData"
  }
},
{
  "type": "node",
  "id": 6956562380,
  "lat": 25.5942052,
  "lon": 85.1881304,
  "tags": {
    "addr:district": "Patna",
    "addr:full": "8M/6, Bahadurpur Housing, NearAgamkuan Thana, Vijay Nagar, Kankarbagh",
    "addr:postcode": "800026",
    "addr:state": "Bihar",
    "amenity": "hospital",
    "name": "Vaishnavi Hospital, Patna",
    "source": "OpenGovernmentData"
  }
},
{
  "type": "node",
  "id": 6956565218,
  "lat": 25.5502044,
  "lon": 87.5692697,
  "tags": {
    "addr:district": "Katihar",
    "addr:full": "Lal kothi Road",
    "addr:postcode": "854105",
    "addr:state": "Bihar",
    "amenity": "hospital",
    "name": "Patna Hospital",
    "source": "OpenGovernmentData"
  }
},
{
  "type": "node",
  "id": 6956585312,
  "lat": 26.1275656,
  "lon": 85.9038571,
  "tags": {
    "addr:district": "Darbhanga",
    "addr:full": "Benta Road",
    "addr:postcode": "846002",
    "addr:state": "Bihar",
    "amenity": "hospital",
    "healthcare": "hospital",
    "name": "R B Memorial Hospital",
    "source": "OpenGovernmentData"
  }
},
{
  "type": "node",
  "id": 6956602522,
  "lat": 25.2120479,
  "lon": 83.5200848,
  "tags": {
    "addr:district": "Kaimur (Bhabua)",
    "addr:full": "Durgawati G.T.Road",
    "addr:postcode": "821105",
    "addr:state": "Bihar",
    "amenity": "hospital",
    "name": "Prakash Hospital, Kaimur (Bhabua)",
    "source": "OpenGovernmentData"
  }
},
{
  "type": "node",
  "id": 6956602537,
  "lat": 25.3729295,
  "lon": 86.4695021,
  "tags": {
    "addr:district": "Munger",
    "addr:full": "Belan Bazar NearVaidnath Takies",
    "addr:postcode": "811201",
    "addr:state": "Bihar",
    "amenity": "hospital",
    "name": "Surims and Hospital",
    "source": "OpenGovernmentData"
  }
},
{
  "type": "node",
  "id": 6956608952,
  "lat": 26.4624054,
  "lon": 84.4400523,
  "tags": {
    "addr:district": "Gopalganj",
    "addr:full": "Cinema Road",
    "addr:postcode": "841428",
    "addr:state": "Bihar",
    "amenity": "hospital",
    "name": "DR. M. Kumar Medical Dental Institute And Hospital",
    "source": "OpenGovernmentData"
  }
},
{
  "type": "node",
  "id": 6956619415,
  "lat": 25.2117481,
  "lon": 85.7390119,
  "tags": {
    "addr:district": "Sheikhpura",
    "addr:full": "Barbigha",
    "addr:postcode": "811101",
    "addr:state": "Bihar",
    "amenity": "hospital",
    "name": "Singh Hospital Research Center",
    "source": "OpenGovernmentData"
  }
},
{
  "type": "node",
  "id": 6956628112,
  "lat": 26.1265027,
  "lon": 85.9033388,
  "tags": {
    "addr:district": "Darbhanga",
    "addr:full": "Benta Road, Laheriasari",
    "addr:postcode": "846003",
    "addr:state": "Bihar",
    "amenity": "hospital",
    "healthcare": "hospital",
    "name": "Anant Arogya Neketan",
    "source": "OpenGovernmentData"
  }
},
{
  "type": "node",
  "id": 6956634034,
  "lat": 25.6026612,
  "lon": 85.2096102,
  "tags": {
    "addr:district": "Patna",
    "addr:full": "Belwarganj, Pachim Darwaza",
    "addr:postcode": "800007",
    "addr:state": "Bihar",
    "amenity": "hospital",
    "name": "Polo Hospital, Patna",
    "source": "OpenGovernmentData"
  }
},
{
  "type": "node",
  "id": 6956634039,
  "lat": 25.6156068,
  "lon": 85.1267970,
  "tags": {
    "addr:district": "Patna",
    "addr:full": "L-26, S P Bariyar Path, near Bank Of India, Sri Krishna Nagar,Kidwaipuri",
    "addr:postcode": "800001",
    "addr:state": "Bihar",
    "amenity": "hospital",
    "name": "Sheila Urology & Laproscopy Centre",
    "source": "OpenGovernmentData"
  }
},
{
  "type": "node",
  "id": 6956634876,
  "lat": 26.1320706,
  "lon": 85.9027037,
  "tags": {
    "addr:district": "Darbhanga",
    "addr:full": "NearDmch Child Ward, Laheria Sarai",
    "addr:postcode": "846003",
    "addr:state": "Bihar",
    "amenity": "hospital",
    "healthcare": "hospital",
    "name": "Navjeevan Hospital, Darbhanga",
    "source": "OpenGovernmentData"
  }
},
{
  "type": "node",
  "id": 6956635724,
  "lat": 25.6938583,
  "lon": 85.1806706,
  "tags": {
    "addr:district": "Saran",
    "addr:full": "Hospital Road,NearPunjab National Bank, Sonepur",
    "addr:postcode": "841101",
    "addr:state": "Bihar",
    "amenity": "hospital",
    "contact:mobile": "9334856373",
    "name": "Jeevandeep Hospital, Saran",
    "source": "OpenGovernmentData"
  }
},
{
  "type": "node",
  "id": 6956657476,
  "lat": 25.0344460,
  "lon": 84.3956442,
  "tags": {
    "addr:district": "Aurangabad",
    "addr:full": "Sangat Road Old Town Daudnagar",
    "addr:postcode": "824113",
    "addr:state": "Bihar",
    "amenity": "hospital",
    "name": "Dord Hospital",
    "source": "OpenGovernmentData"
  }
},
{
  "type": "node",
  "id": 6956662658,
  "lat": 25.6016084,
  "lon": 85.2147044,
  "tags": {
    "addr:district": "Vaishali",
    "addr:full": "Hajipur Road Hajipur",
    "addr:postcode": "844101",
    "addr:state": "Bihar",
    "amenity": "hospital",
    "name": "Shri Harijeevan Health Care",
    "source": "OpenGovernmentData"
  }
},
{
  "type": "node",
  "id": 6956662663,
  "lat": 24.7875710,
  "lon": 84.9997213,
  "tags": {
    "addr:district": "Gaya",
    "addr:full": "South Church Road, NearGhara Hotel",
    "addr:postcode": "823001",
    "addr:state": "Bihar",
    "amenity": "hospital",
    "name": "Health Touch Hospital",
    "source": "OpenGovernmentData"
  }
},
{
  "type": "node",
  "id": 6956662668,
  "lat": 25.8834733,
  "lon": 87.1886748,
  "tags": {
    "addr:district": "Purnia",
    "addr:full": "Banmankhi",
    "addr:postcode": "854202",
    "addr:state": "Bihar",
    "amenity": "hospital",
    "name": "Sub Division Hospital, Banmankhi",
    "source": "OpenGovernmentData"
  }
},
{
  "type": "node",
  "id": 6956680940,
  "lat": 26.2534126,
  "lon": 86.2786744,
  "tags": {
    "addr:district": "Madhubani",
    "addr:full": "NearBlock Office, Jhanjharpur",
    "addr:postcode": "847404",
    "addr:state": "Bihar",
    "amenity": "hospital",
    "name": "Sub-Divisional Hospital, Jhanjharpur (Madhubani)",
    "source": "OpenGovernmentData"
  }
},
{
  "type": "node",
  "id": 6956685278,
  "lat": 25.3170384,
  "lon": 85.2800605,
  "tags": {
    "addr:district": "Nalanda",
    "addr:full": "Varuntal, Hilsa",
    "addr:postcode": "801302",
    "addr:state": "Bihar",
    "amenity": "hospital",
    "contact:phone": "+91 6111253734",
    "healthcare": "hospital",
    "name": "Sandali Hospital Pvt. Ltd",
    "source": "OpenGovernmentData"
  }
},
{
  "type": "node",
  "id": 6956743482,
  "lat": 25.2081130,
  "lon": 85.5164033,
  "tags": {
    "addr:district": "Nalanda",
    "addr:full": "Neel Ganan Complex, Palla Pokhar, Kaghi Mohala, Biharsarif",
    "addr:postcode": "803101",
    "addr:state": "Bihar",
    "amenity": "hospital",
    "name": "Jahnavi Eye Care and Research Center",
    "source": "OpenGovernmentData"
  }
},
{
  "type": "node",
  "id": 6956743765,
  "lat": 25.3126067,
  "lon": 85.2763599,
  "tags": {
    "addr:district": "Nalanda",
    "addr:full": "Yogi Pur Road Hilsa",
    "addr:postcode": "800020",
    "addr:state": "Bihar",
    "amenity": "hospital",
    "contact:mobile": "9835611405",
    "name": "Khushi Hospital, Nalanda",
    "source": "OpenGovernmentData"
  }
},
{
  "type": "node",
  "id": 6956761482,
  "lat": 25.5907277,
  "lon": 85.1566528,
  "tags": {
    "addr:district": "Patna",
    "addr:full": "Kankarbagh",
    "addr:postcode": "800020",
    "addr:state": "Bihar",
    "amenity": "hospital",
    "name": "S.S.Hospital and Research Centre Pvt.Ltd.",
    "source": "OpenGovernmentData"
  }
},
{
  "type": "node",
  "id": 6956781672,
  "lat": 26.5475298,
  "lon": 84.6717583,
  "tags": {
    "addr:district": "East Champaran",
    "addr:full": "Bara Chakia",
    "addr:postcode": "845412",
    "addr:state": "Bihar",
    "amenity": "hospital",
    "contact:mobile": "9939122900",
    "name": "Referral Hospital, East Champaran",
    "source": "OpenGovernmentData"
  }
},
{
  "type": "node",
  "id": 6956785821,
  "lat": 26.1573098,
  "lon": 85.8993530,
  "tags": {
    "addr:district": "Darbhanga",
    "addr:full": "5, G.M. Road(West Of Radio Staion)",
    "addr:postcode": "846004",
    "addr:state": "Bihar",
    "amenity": "hospital",
    "healthcare": "hospital",
    "name": "Shyama Surgical Sansthan",
    "source": "OpenGovernmentData"
  }
},
{
  "type": "node",
  "id": 6956785826,
  "lat": 25.6130322,
  "lon": 85.0754803,
  "tags": {
    "addr:district": "Patna",
    "addr:full": "Maurya Path Khajpura",
    "addr:postcode": "800014",
    "addr:state": "Bihar",
    "amenity": "hospital",
    "name": "Shyamal Hospital",
    "source": "OpenGovernmentData"
  }
},
{
  "type": "node",
  "id": 6956790511,
  "lat": 26.5927220,
  "lon": 85.5044988,
  "tags": {
    "addr:district": "Sitamarhi",
    "addr:full": "Sursand Road",
    "addr:postcode": "843302",
    "addr:state": "Bihar",
    "amenity": "hospital",
    "name": "Jj Hospital",
    "source": "OpenGovernmentData"
  }
},
{
  "type": "node",
  "id": 6956813917,
  "lat": 26.5976064,
  "lon": 85.4976532,
  "tags": {
    "addr:district": "Sitamarhi",
    "addr:full": "Sona Complex, Sonawati Coloney, Dumra Road",
    "addr:postcode": "843301",
    "addr:state": "Bihar",
    "amenity": "hospital",
    "name": "Nandipat Memorial Laproscopic and General Surgery Ce",
    "source": "OpenGovernmentData"
  }
},
{
  "type": "node",
  "id": 6956851912,
  "lat": 25.6000205,
  "lon": 85.1543965,
  "tags": {
    "addr:district": "Patna",
    "addr:full": "Nc-1-C, Lohia Nagar, West Of Rajendra Nagar, Over Bridge, Kankar Bagh",
    "addr:postcode": "800020",
    "addr:state": "Bihar",
    "amenity": "hospital",
    "name": "Sri Ram Hospital",
    "source": "OpenGovernmentData"
  }
},
{
  "type": "node",
  "id": 6956888565,
  "lat": 25.2007378,
  "lon": 85.5146465,
  "tags": {
    "addr:district": "Nalanda",
    "addr:full": "Ranchi Road, Bhaisasur , Bihar Sharif",
    "addr:postcode": "803101",
    "addr:state": "Bihar",
    "amenity": "hospital",
    "name": "Jeevan Jyoti Hospital, Nalanda",
    "source": "OpenGovernmentData"
  }
},
{
  "type": "node",
  "id": 6956888570,
  "lat": 26.1295719,
  "lon": 87.4691829,
  "tags": {
    "addr:district": "Araria",
    "addr:full": "Araria",
    "addr:postcode": "854311",
    "addr:state": "Bihar",
    "amenity": "hospital",
    "name": "Sadar Hopital, Araria",
    "source": "OpenGovernmentData"
  }
},
{
  "type": "node",
  "id": 6956888575,
  "lat": 25.5905772,
  "lon": 85.1618958,
  "tags": {
    "addr:district": "Nawada",
    "addr:full": "Hisua Rajgir Main Road Nardi Ganj",
    "addr:postcode": "851129",
    "addr:state": "Bihar",
    "amenity": "hospital",
    "healthcare": "hospital",
    "name": "Budha Hospital",
    "source": "OpenGovernmentData"
  }
},
{
  "type": "node",
  "id": 6956898281,
  "lat": 26.2318456,
  "lon": 84.3714850,
  "tags": {
    "addr:district": "Siwan",
    "addr:full": "Vijay Hata , Barharia Road Goushala",
    "addr:postcode": "841226",
    "addr:state": "Bihar",
    "amenity": "hospital",
    "name": "Shubh Seva Sansthan and Reasearch Cenre",
    "source": "OpenGovernmentData"
  }
},
{
  "type": "node",
  "id": 6956903293,
  "lat": 24.9520082,
  "lon": 83.9981925,
  "tags": {
    "addr:district": "Rohtas",
    "addr:full": "Faizal Ganj, G.T. Road",
    "addr:postcode": "821115",
    "addr:state": "Bihar",
    "amenity": "hospital",
    "name": "Anand Hospital And Research Centre",
    "source": "OpenGovernmentData"
  }
},
{
  "type": "node",
  "id": 6956903298,
  "lat": 26.1053031,
  "lon": 85.3951138,
  "tags": {
    "addr:district": "Muzaffarpur",
    "addr:full": "Satpura Main Road, NearRailway Crossing",
    "addr:postcode": "842002",
    "addr:state": "Bihar",
    "amenity": "hospital",
    "name": "Ayush Hospital",
    "source": "OpenGovernmentData"
  }
},
{
  "type": "node",
  "id": 6956913448,
  "lat": 25.6013979,
  "lon": 85.1586342,
  "tags": {
    "addr:district": "Patna",
    "addr:full": "6, Doctors Colony Kankarbagh",
    "addr:postcode": "800020",
    "addr:state": "Bihar",
    "amenity": "hospital",
    "name": "Jeevak Heart Hospital and Research Institute Pvt Ltd",
    "source": "OpenGovernmentData"
  }
},
{
  "type": "node",
  "id": 6956914350,
  "lat": 26.1269664,
  "lon": 85.9044573,
  "tags": {
    "addr:district": "Saharsa",
    "addr:full": "Refugee Colony Bangaon Road",
    "addr:postcode": "852201",
    "addr:state": "Bihar",
    "amenity": "hospital",
    "healthcare": "hospital",
    "name": "Ugratara Netra Chikitsalaya Hospital",
    "source": "OpenGovernmentData"
  }
},
{
  "type": "node",
  "id": 6956944933,
  "lat": 25.6185429,
  "lon": 85.1632100,
  "tags": {
    "addr:district": "Patna",
    "addr:full": "NearKhudaBaqsh Library, Ashok Rajpath, Makhania Kuan, Lalbagh",
    "addr:postcode": "800004",
    "addr:state": "Bihar",
    "amenity": "hospital",
    "contact:phone": "+91 9771496911",
    "email": "arvind.hospital.patna@gmail.com; info@arvindhospital.org",
    "healthcare:speciality": "multi speciality",
    "name": "Arvind Hospital",
    "operator:type": "private",
    "source": "OpenGovernmentData",
    "website": "http://www.arvindhospital.org"
  }
},
{
  "type": "node",
  "id": 6956944938,
  "lat": 25.9247223,
  "lon": 86.7969355,
  "tags": {
    "addr:district": "Madhepura",
    "addr:full": "NearBus Stand",
    "addr:postcode": "852113",
    "addr:state": "Bihar",
    "amenity": "hospital",
    "contact:mobile": "9431254840",
    "healthcare": "hospital",
    "name": "Druvit Hospital",
    "source": "OpenGovernmentData"
  }
},
{
  "type": "node",
  "id": 6956948359,
  "lat": 25.0214033,
  "lon": 85.4232852,
  "tags": {
    "addr:district": "Nalanda",
    "addr:full": "Kabir Nagar,NearBarma Temple",
    "addr:postcode": "801301",
    "addr:state": "Bihar",
    "amenity": "hospital",
    "name": "Kabirayatan Eye Hospital and Research Institute",
    "source": "OpenGovernmentData"
  }
},
{
  "type": "node",
  "id": 6958105776,
  "lat": 25.0402736,
  "lon": 83.6076361,
  "tags": {
    "addr:district": "Kaimur (Bhabua)",
    "addr:full": "Kachari Road",
    "addr:postcode": "821101",
    "addr:state": "Bihar",
    "amenity": "hospital",
    "name": "Ranjan Hospital, Kaimur (Bhabua)",
    "source": "OpenGovernmentData"
  }
},
{
  "type": "node",
  "id": 6958132369,
  "lat": 26.1295732,
  "lon": 85.9051198,
  "tags": {
    "addr:district": "Darbhanga",
    "addr:full": "Benta Chowk, Laheriya Sarai",
    "addr:postcode": "846003",
    "addr:state": "Bihar",
    "amenity": "hospital",
    "healthcare": "hospital",
    "name": "Arora Nursing Home",
    "source": "OpenGovernmentData"
  }
},
{
  "type": "node",
  "id": 6958138336,
  "lat": 25.5959832,
  "lon": 85.1577732,
  "tags": {
    "addr:district": "Patna",
    "addr:full": "0/85, Doctor`S Colony, Kankarbagh",
    "addr:postcode": "800020",
    "addr:state": "Bihar",
    "amenity": "hospital",
    "name": "Vijai Hospital",
    "source": "OpenGovernmentData"
  }
},
{
  "type": "node",
  "id": 6958187823,
  "lat": 25.7866849,
  "lon": 87.4846458,
  "tags": {
    "addr:district": "Purnia",
    "addr:full": "NearBhoothnath Mandir Colony",
    "addr:postcode": "854301",
    "addr:state": "Bihar",
    "amenity": "hospital",
    "name": "Indra Gandhi Memorial Seva Sansthan",
    "source": "OpenGovernmentData"
  }
},
{
  "type": "node",
  "id": 6965178145,
  "lat": 26.4573430,
  "lon": 84.4498372,
  "tags": {
    "addr:district": "Gopalganj",
    "addr:full": "Opposite Sadar Hospital",
    "addr:postcode": "841428",
    "addr:state": "Bihar",
    "amenity": "hospital",
    "contact:mobile": "9934673813",
    "name": "Saurav Hospital",
    "source": "OpenGovernmentData"
  }
},
{
  "type": "node",
  "id": 6965186443,
  "lat": 27.1621310,
  "lon": 84.3260402,
  "tags": {
    "addr:district": "West Champaran",
    "addr:full": "Sabui Road Near Rajhans Public School, Ram Nagar",
    "addr:postcode": "845106",
    "addr:state": "Bihar",
    "amenity": "hospital",
    "name": "Liza and Nans",
    "source": "OpenGovernmentData"
  }
},
{
  "type": "node",
  "id": 6965202278,
  "lat": 25.2560517,
  "lon": 86.9965723,
  "tags": {
    "addr:district": "Bhagalpur",
    "addr:full": "Sukhraj Rai Path, Katalbari",
    "addr:postcode": "812001",
    "addr:state": "Bihar",
    "amenity": "hospital",
    "contact:mobile": "9431446729",
    "name": "Kaushalaya Eye Research Institute",
    "source": "OpenGovernmentData"
  }
},
{
  "type": "node",
  "id": 6965219430,
  "lat": 25.0981807,
  "lon": 86.6640291,
  "tags": {
    "addr:district": "Munger",
    "addr:full": "Behind Bsnl Tower , Old Bus Stand, Tarapur",
    "addr:postcode": "813321",
    "addr:state": "Bihar",
    "amenity": "hospital",
    "name": "Baba Baidynath Eye Hospital",
    "source": "OpenGovernmentData"
  }
},
{
  "type": "node",
  "id": 6965235066,
  "lat": 25.8092544,
  "lon": 85.3951621,
  "tags": {
    "addr:district": "Vaishali",
    "addr:full": "Opposite Bank Of India, Jawahar Chowk, Mahua",
    "addr:postcode": "844101",
    "addr:state": "Bihar",
    "amenity": "hospital",
    "name": "Chanchal Suman Hospital",
    "source": "OpenGovernmentData"
  }
},
{
  "type": "node",
  "id": 6965235071,
  "lat": 25.6039849,
  "lon": 85.4843241,
  "tags": {
    "addr:district": "Vaishali",
    "addr:full": "Patel Chowk, Manhar",
    "addr:postcode": "844506",
    "addr:state": "Bihar",
    "amenity": "hospital",
    "contact:phone": "+91 9931984508",
    "name": "Ashish Chikitsha Kendra",
    "source": "OpenGovernmentData"
  }
},
{
  "type": "node",
  "id": 6965256243,
  "lat": 25.7839204,
  "lon": 84.7263361,
  "tags": {
    "addr:district": "Begusarai",
    "addr:full": "Bhagwan Pur Chhapra",
    "addr:postcode": "851129",
    "addr:state": "Bihar",
    "amenity": "hospital",
    "name": "Rishi Sewa Sadan",
    "source": "OpenGovernmentData"
  }
},
{
  "type": "node",
  "id": 6965260972,
  "lat": 25.4433957,
  "lon": 86.0561536,
  "tags": {
    "addr:district": "Begusarai",
    "addr:full": "Deena, Nh- 31",
    "addr:postcode": "851122",
    "addr:state": "Bihar",
    "amenity": "hospital",
    "name": "Shabnam Hospital",
    "source": "OpenGovernmentData"
  }
},
{
  "type": "node",
  "id": 6965265734,
  "lat": 25.4170036,
  "lon": 86.1195667,
  "tags": {
    "addr:district": "Begusarai",
    "addr:full": "New Professor Colony, Dinkar Nagar, Near Harhar Mahadev Chowk",
    "addr:postcode": "851101",
    "addr:state": "Bihar",
    "amenity": "hospital",
    "name": "Ritul Health Care Centre",
    "source": "OpenGovernmentData"
  }
},
{
  "type": "node",
  "id": 6965284710,
  "lat": 25.4184666,
  "lon": 86.1401035,
  "tags": {
    "addr:district": "Begusarai",
    "addr:full": "Opp- S. K. Mahila College, Dak Banglow Road, Bishanpur",
    "addr:postcode": "851101",
    "addr:state": "Bihar",
    "amenity": "hospital",
    "healthcare:speciality": "general",
    "name": "Shreshtha Surgical and Maternity Hospital",
    "source": "OpenGovernmentData"
  }
},
{
  "type": "node",
  "id": 6965308143,
  "lat": 25.4254730,
  "lon": 86.1069763,
  "tags": {
    "addr:district": "Begusarai",
    "addr:full": "Kapasia Chowk",
    "addr:postcode": "851101",
    "addr:state": "Bihar",
    "amenity": "hospital",
    "name": "Shree Agrasen Matri Seva Sadan",
    "source": "OpenGovernmentData"
  }
},
{
  "type": "node",
  "id": 6965355129,
  "lat": 25.9306287,
  "lon": 85.3196780,
  "tags": {
    "addr:district": "Vaishali",
    "addr:full": "Garaul Bazar, NearRailway Station,",
    "addr:postcode": "844128",
    "addr:state": "Bihar",
    "amenity": "hospital",
    "name": "Sarthi Sewa Sadan",
    "source": "OpenGovernmentData"
  }
},
{
  "type": "node",
  "id": 6965355141,
  "lat": 25.8076245,
  "lon": 85.3974842,
  "tags": {
    "addr:district": "Vaishali",
    "addr:full": "Bajrang Bali Chowk, Paharpur, Raghopur",
    "addr:postcode": "844508",
    "addr:state": "Bihar",
    "amenity": "hospital",
    "name": "Sai Hospital, Vaishali",
    "source": "OpenGovernmentData"
  }
},
{
  "type": "node",
  "id": 6965355155,
  "lat": 25.6904676,
  "lon": 85.2003653,
  "tags": {
    "addr:district": "Vaishali",
    "addr:full": "Amarapali Chikitsa Kendra, S.D.O. Road, Hazipur",
    "addr:postcode": "844114",
    "addr:state": "Bihar",
    "amenity": "hospital",
    "name": "Pashupati Nath Memorial Research Hospital",
    "source": "OpenGovernmentData"
  }
},
{
  "type": "node",
  "id": 6965357498,
  "lat": 25.3796202,
  "lon": 86.4764128,
  "tags": {
    "addr:district": "Munger",
    "addr:full": "Dr. B. G. Bose Lane , Seva Colony, NearNeelam Cinema Road",
    "addr:postcode": "811201",
    "addr:state": "Bihar",
    "amenity": "hospital",
    "name": "Sevayan Medical And Research Centre - Munger",
    "source": "OpenGovernmentData"
  }
},
{
  "type": "node",
  "id": 6965426829,
  "lat": 25.6044215,
  "lon": 85.0844564,
  "tags": {
    "addr:district": "Patna",
    "addr:full": "Rajabazar, Bailey Road",
    "addr:postcode": "800014",
    "addr:state": "Bihar",
    "amenity": "hospital",
    "contact:phone": "+91 9334114835",
    "name": "Getwell Hospital, Patna",
    "source": "OpenGovernmentData"
  }
},
{
  "type": "node",
  "id": 6965430805,
  "lat": 26.1296986,
  "lon": 85.9058898,
  "tags": {
    "addr:district": "Darbhanga",
    "addr:full": "Sahaganj, Benta, P.O.-Dmc Campus",
    "addr:postcode": "846003",
    "addr:state": "Bihar",
    "amenity": "hospital",
    "healthcare": "hospital",
    "name": "Godawari Jiwachh Memorial Hospital",
    "source": "OpenGovernmentData"
  }
},
{
  "type": "node",
  "id": 6965433177,
  "lat": 25.1440002,
  "lon": 85.8585191,
  "tags": {
    "addr:district": "Sheikhpura",
    "addr:full": "Hanuman More, Bypass Road",
    "addr:postcode": "811105",
    "addr:state": "Bihar",
    "amenity": "hospital",
    "contact:mobile": "9308677672",
    "name": "Sri Ram Hospital",
    "source": "OpenGovernmentData"
  }
},
{
  "type": "node",
  "id": 6965436308,
  "lat": 25.8616107,
  "lon": 85.7773212,
  "tags": {
    "addr:district": "Samastipur",
    "addr:full": "Kashipur, Samastipur, West Of Kachhari",
    "addr:postcode": "848101",
    "addr:state": "Bihar",
    "amenity": "hospital",
    "name": "Navjyoti Hospital Ground",
    "source": "OpenGovernmentData"
  }
},
{
  "type": "node",
  "id": 6965438198,
  "lat": 26.8129903,
  "lon": 84.9686721,
  "tags": {
    "addr:district": "East Champaran",
    "addr:full": "Vill-Khairwa, P.O-Bela, Chauradanao",
    "addr:postcode": "845302",
    "addr:state": "Bihar",
    "amenity": "hospital",
    "name": "Swasthya Kendra Khairwa",
    "source": "OpenGovernmentData"
  }
},
{
  "type": "node",
  "id": 6965439635,
  "lat": 25.4243108,
  "lon": 86.1321661,
  "tags": {
    "addr:district": "Begusarai",
    "addr:full": "Jivan Suraksha, NearBus And Railway Station",
    "addr:postcode": "851101",
    "addr:state": "Bihar",
    "amenity": "hospital",
    "name": "Jivan Suraksha Hospital",
    "source": "OpenGovernmentData"
  }
},
{
  "type": "node",
  "id": 6965442746,
  "lat": 26.1480456,
  "lon": 85.9032781,
  "tags": {
    "addr:district": "Darbhanga",
    "addr:full": "West Diggi, Mishra Tola",
    "addr:postcode": "846004",
    "addr:state": "Bihar",
    "amenity": "hospital",
    "healthcare": "hospital",
    "name": "I B Smriti Arogya Sadan",
    "source": "OpenGovernmentData"
  }
},
{
  "type": "node",
  "id": 6965449154,
  "lat": 25.4135528,
  "lon": 86.1383627,
  "tags": {
    "addr:district": "Begusarai",
    "addr:full": "Kali sthan Road",
    "addr:postcode": "851101",
    "addr:state": "Bihar",
    "amenity": "hospital",
    "healthcare:speciality": "ophthalmology",
    "name": "Hope Hospital, Begusarai",
    "source": "OpenGovernmentData;local knowledge"
  }
},
{
  "type": "node",
  "id": 6965454583,
  "lat": 25.4458359,
  "lon": 86.0426011,
  "tags": {
    "addr:district": "Begusarai",
    "addr:full": "Paprour",
    "addr:postcode": "851210",
    "addr:state": "Bihar",
    "amenity": "hospital",
    "name": "Chand Suraj Hospital",
    "source": "OpenGovernmentData"
  }
},
{
  "type": "node",
  "id": 6965461649,
  "lat": 25.3523827,
  "lon": 87.6241542,
  "tags": {
    "addr:district": "Katihar",
    "addr:full": "Manihari",
    "addr:postcode": "854105",
    "addr:state": "Bihar",
    "amenity": "hospital",
    "name": "Sub Div Hospital Manihari",
    "source": "OpenGovernmentData"
  }
},
{
  "type": "node",
  "id": 6965463789,
  "lat": 26.1313298,
  "lon": 85.9012333,
  "tags": {
    "addr:district": "Darbhanga",
    "addr:full": "Vaishali Complex, Hospital Road, Laheriasarai",
    "addr:postcode": "846004",
    "addr:state": "Bihar",
    "amenity": "hospital",
    "healthcare": "hospital",
    "name": "Jyoti Research Hospital",
    "source": "OpenGovernmentData"
  }
},
{
  "type": "node",
  "id": 6965465115,
  "lat": 25.4147078,
  "lon": 86.1341456,
  "tags": {
    "addr:district": "Begusarai",
    "addr:full": "NearBank Of Baroda, Heera Lal Chowk",
    "addr:postcode": "851101",
    "addr:state": "Bihar",
    "amenity": "hospital",
    "name": "G. Lall Memorial Hospital",
    "source": "OpenGovernmentData"
  }
},
{
  "type": "node",
  "id": 6965466061,
  "lat": 26.1442182,
  "lon": 85.8925908,
  "tags": {
    "addr:district": "Darbhanga",
    "addr:full": "Neem Chowk Urdu Bazar, Post- Lalbagh,NearEducation Office",
    "addr:postcode": "846004",
    "addr:state": "Bihar",
    "amenity": "hospital",
    "healthcare": "hospital",
    "name": "M.S. Hospital",
    "source": "OpenGovernmentData"
  }
},
{
  "type": "node",
  "id": 6965484896,
  "lat": 26.1377117,
  "lon": 85.9041607,
  "tags": {
    "addr:district": "Darbhanga",
    "addr:full": "Front Of Telephone Office, Gangasagar,Allpatti ,Laheriasarai",
    "addr:postcode": "846004",
    "addr:state": "Bihar",
    "amenity": "hospital",
    "healthcare": "hospital",
    "name": "Raj Gopal Health Care Centre",
    "source": "OpenGovernmentData"
  }
},
{
  "type": "node",
  "id": 6965490390,
  "lat": 26.1262532,
  "lon": 85.8952830,
  "tags": {
    "addr:district": "Darbhanga",
    "addr:full": "Belwaganj, (NearLight House Cinema), Laheriasarai",
    "addr:postcode": "846004",
    "addr:state": "Bihar",
    "amenity": "hospital",
    "healthcare": "hospital",
    "name": "New Sanjivani Hospital, Darbhanga",
    "source": "OpenGovernmentData"
  }
},
{
  "type": "node",
  "id": 6965490395,
  "lat": 26.1323521,
  "lon": 85.8965456,
  "tags": {
    "addr:district": "Darbhanga",
    "addr:full": "North Of Zila School, Naka No-6, Moh Karamganj",
    "addr:postcode": "846001",
    "addr:state": "Bihar",
    "amenity": "hospital",
    "healthcare": "hospital",
    "name": "Shekhar Netralaya and E.N.T Hospital",
    "source": "OpenGovernmentData"
  }
},
{
  "type": "node",
  "id": 6965497542,
  "lat": 26.0974677,
  "lon": 84.2925657,
  "tags": {
    "addr:district": "Siwan",
    "addr:full": "Raghunathpur Road, Shanti Nagar, Andar Bazar",
    "addr:postcode": "841231",
    "addr:state": "Bihar",
    "amenity": "hospital",
    "name": "Sanjeevani Sewa Sadan",
    "source": "OpenGovernmentData"
  }
},
{
  "type": "node",
  "id": 6965499322,
  "lat": 26.1567248,
  "lon": 85.9013177,
  "tags": {
    "addr:district": "Darbhanga",
    "addr:full": "8, G M Road (Denbi Road) NearRadio Station",
    "addr:postcode": "846004",
    "addr:state": "Bihar",
    "amenity": "hospital",
    "healthcare": "hospital",
    "name": "Sri Ramjanki Arogya Niketan",
    "source": "OpenGovernmentData"
  }
},
{
  "type": "node",
  "id": 6965512994,
  "lat": 26.2304513,
  "lon": 84.3700165,
  "tags": {
    "addr:district": "Siwan",
    "addr:full": "Near Sadar Hospital",
    "addr:postcode": "841226",
    "addr:state": "Bihar",
    "amenity": "hospital",
    "contact:mobile": "9334963009",
    "name": "Neelkamal Hospital",
    "source": "OpenGovernmentData"
  }
},
{
  "type": "node",
  "id": 6965517800,
  "lat": 26.3870053,
  "lon": 84.7722561,
  "tags": {
    "addr:district": "East Champaran",
    "addr:full": "N.H-28, Khajauriya Chowk, Motihari",
    "addr:postcode": "845423",
    "addr:state": "Bihar",
    "amenity": "hospital",
    "name": "Jagannath Seva Sansthan(Medical Help Centre Ngo)",
    "source": "OpenGovernmentData"
  }
},
{
  "type": "node",
  "id": 6965541180,
  "lat": 26.1114629,
  "lon": 84.5079115,
  "tags": {
    "addr:district": "Siwan",
    "addr:full": "Oshihar More, Mohan Bazar, Maharajganj",
    "addr:postcode": "841238",
    "addr:state": "Bihar",
    "amenity": "hospital",
    "name": "Janta Seva Sadan",
    "source": "OpenGovernmentData"
  }
},
{
  "type": "node",
  "id": 6965556409,
  "lat": 26.1461035,
  "lon": 85.3594136,
  "tags": {
    "addr:district": "Muzaffarpur",
    "addr:full": "Bairiya Golamber",
    "addr:postcode": "842001",
    "addr:state": "Bihar",
    "amenity": "hospital",
    "name": "Maa Janki Hospital and Research Center Pvt Ltd",
    "source": "OpenGovernmentData"
  }
},
{
  "type": "node",
  "id": 6965560637,
  "lat": 26.1226599,
  "lon": 85.3841145,
  "tags": {
    "addr:district": "Muzaffarpur",
    "addr:full": "Bank Road",
    "addr:postcode": "842001",
    "addr:state": "Bihar",
    "amenity": "hospital",
    "name": "Muzaffarpur Heart Hospital and Research Centre Pvt. Ltd.",
    "source": "OpenGovernmentData"
  }
},
{
  "type": "node",
  "id": 6965565212,
  "lat": 24.9432481,
  "lon": 84.1024020,
  "tags": {
    "addr:district": "Rohtas",
    "addr:full": "Old G.T.Road,Jamuhar",
    "addr:postcode": "821305",
    "addr:state": "Bihar",
    "amenity": "hospital",
    "healthcare": "hospital",
    "name": "Narayan Medical College And Hospital",
    "source": "OpenGovernmentData",
    "website": "https://nmch.ac.in/",
    "wheelchair": "yes"
  }
},
{
  "type": "node",
  "id": 6965587324,
  "lat": 24.9167766,
  "lon": 86.2249021,
  "tags": {
    "addr:district": "Jamui",
    "addr:full": "Khaira , Main Road",
    "addr:postcode": "811307",
    "addr:state": "Bihar",
    "amenity": "hospital",
    "healthcare": "hospital",
    "name": "Dr Amit Anand-Hospital",
    "source": "OpenGovernmentData"
  }
},
{
  "type": "node",
  "id": 6965587329,
  "lat": 24.9534151,
  "lon": 84.0072584,
  "tags": {
    "addr:district": "Rohtas",
    "addr:full": "Raj Colony,G.T.Road",
    "addr:postcode": "821115",
    "addr:state": "Bihar",
    "amenity": "hospital",
    "name": "Shivam Hospital, Rohtas",
    "source": "OpenGovernmentData"
  }
},
{
  "type": "node",
  "id": 6965589199,
  "lat": 25.8792044,
  "lon": 86.5893137,
  "tags": {
    "addr:district": "Saharsa",
    "addr:full": "Ashok Cinema Road, Gandhi Path",
    "addr:postcode": "852201",
    "addr:state": "Bihar",
    "amenity": "hospital",
    "name": "Surya Hospital, Saharsa",
    "source": "OpenGovernmentData"
  }
},
{
  "type": "node",
  "id": 6965618930,
  "lat": 26.1296294,
  "lon": 85.3744079,
  "tags": {
    "addr:district": "Muzaffarpur",
    "addr:full": "Juran Chapara, Road No.4",
    "addr:postcode": "842001",
    "addr:state": "Bihar",
    "amenity": "hospital",
    "name": "M.I.S.H.R.A Hospital, Muzaffarpur",
    "source": "OpenGovernmentData"
  }
},