{
  "version": 0.6,
  "generator": "Overpass API 0.7.62.8 e802775f",
  "osm3s": {
    "timestamp_osm_base": "2025-11-30T12:53:53Z",
    "copyright": "The data included in this document is from www.openstreetmap.org. The data is made available under ODbL."
  },
  "elements": [

{
  "type": "node",
  "id": 978641677,
  "lat": 17.9109978,
  "lon": 80.8012159,
  "tags": {
    "amenity": "hospital",
    "name": "Singareni Area Hospital"
  }
},
{
  "type": "node",
  "id": 2840587043,
  "lat": 23.1877313,
  "lon": 81.5717458,
  "tags": {
    "amenity": "hospital",
    "name": "Central Hospital"
  }
},
{
  "type": "node",
  "id": 2866263075,
  "lat": 23.1550564,
  "lon": 81.9707571,
  "tags": {
    "amenity": "hospital",
    "name": "Regional Hospital"
  }
},
{
  "type": "node",
  "id": 2953667081,
  "lat": 21.1994701,
  "lon": 81.2857545,
  "tags": {
    "addr:city": "durg",
    "addr:housenumber": "om parisar",
    "addr:postcode": "491001",
    "amenity": "hospital",
    "name": "Life Care Scan & Research"
  }
},
{
  "type": "node",
  "id": 2953667575,
  "lat": 21.1987550,
  "lon": 81.2856067,
  "tags": {
    "addr:city": "durg",
    "addr:district": "Durg",
    "addr:full": "Om Parisar , Dhamdha Road Near Tularam School , Infront Of Kalibai Near I.Ma Chowk",
    "addr:postcode": "491001",
    "addr:state": "Chhattisgarh",
    "amenity": "hospital",
    "name": "Gayatri Hospital, Durg",
    "source": "OpenGovernmentData"
  }
},
{
  "type": "node",
  "id": 2953674104,
  "lat": 21.1872237,
  "lon": 81.2794181,
  "tags": {
    "addr:city": "Durg",
    "addr:postcode": "491001",
    "amenity": "hospital",
    "emergency": "yes",
    "name": "District Hospital"
  }
},
{
  "type": "node",
  "id": 3098258129,
  "lat": 21.1897672,
  "lon": 81.2746431,
  "tags": {
    "amenity": "hospital",
    "name": "ABC"
  }
},
{
  "type": "node",
  "id": 3098261869,
  "lat": 22.5984249,
  "lon": 80.3712308,
  "tags": {
    "amenity": "hospital",
    "healthcare": "hospital",
    "name": "Government Hospital",
    "operator": "Government of Madhya Pradesh",
    "operator:type": "public"
  }
},
{
  "type": "node",
  "id": 3099945763,
  "lat": 23.1345548,
  "lon": 83.1938147,
  "tags": {
    "City": "Ambikapur",
    "amenity": "hospital",
    "name": "Holi Cross Hospital (Mission Hospital)"
  }
},
{
  "type": "node",
  "id": 3423191245,
  "lat": 20.7036708,
  "lon": 83.4901380,
  "tags": {
    "amenity": "hospital",
    "name": "Ayurvedic Hospital, Balangir"
  }
},
{
  "type": "node",
  "id": 3423195194,
  "lat": 20.7074022,
  "lon": 83.4944462,
  "tags": {
    "addr:district": "Balangir",
    "addr:full": "Near Pataneswari Temple, Balangir Muncipality, Balangir",
    "addr:postcode": "767001",
    "addr:state": "Odisha",
    "addr:subdistrict": "Balangir",
    "amenity": "hospital",
    "description": "District Hospital",
    "name": "DH Balangir",
    "source": "OpenGovernmentData"
  }
},
{
  "type": "node",
  "id": 3774564938,
  "lat": 21.2414376,
  "lon": 81.6232005,
  "tags": {
    "addr:city": "Raipur",
    "addr:postcode": "492001",
    "addr:street": "budhapara",
    "amenity": "hospital",
    "description": "hospital",
    "emergency": "yes",
    "healthcare": "hospital",
    "name": "bagri nursing home",
    "operator": "nursing"
  }
},
{
  "type": "node",
  "id": 4069628076,
  "lat": 17.9402079,
  "lon": 80.8165265,
  "tags": {
    "amenity": "hospital",
    "healthcare": "hospital"
  }
},
{
  "type": "node",
  "id": 4247981717,
  "lat": 18.7513835,
  "lon": 83.3732473,
  "tags": {
    "addr:block": "Parvathipuram",
    "addr:city": "pedabondapalli",
    "addr:district": "Vizianagaram",
    "addr:place": "Sudigam Road",
    "addr:postcode": "535522",
    "addr:state": "Andhra Pradesh",
    "addr:subdistrict": "Parvathipuram Mandal",
    "amenity": "hospital",
    "description": "Primary Health Centre",
    "emergency": "yes",
    "healthcare": "centre",
    "name": "Primary Health Center,Pedabondapalli",
    "source": "OpenGovernmentData"
  }
},
{
  "type": "node",
  "id": 4314911526,
  "lat": 18.6607794,
  "lon": 84.3008022,
  "tags": {
    "addr:district": "Srikakulam",
    "addr:full": "Pothuluru",
    "addr:postcode": "532201",
    "addr:state": "Andhra Pradesh",
    "amenity": "hospital",
    "name": "Government Hospital",
    "operator": "Government of Andhra Pradesh, India",
    "source": "Local Knowledge"
  }
},
{
  "type": "node",
  "id": 4419833268,
  "lat": 22.0741311,
  "lon": 82.1583685,
  "tags": {
    "addr:city": "BILASPUR",
    "addr:street": "near by rajiv plaza",
    "amenity": "hospital",
    "emergency": "yes",
    "name": "jila  chikitsalay",
    "operator": "ritu , tanya"
  }
},
{
  "type": "node",
  "id": 4421468431,
  "lat": 22.0888774,
  "lon": 82.1520889,
  "tags": {
    "addr:city": "bilaspur",
    "addr:district": "Bilaspur",
    "addr:full": "Sadar Vallabh Bhai Patel hospital",
    "addr:postcode": "495009",
    "addr:state": "Chhattisgarh",
    "amenity": "hospital",
    "contact:phone": "7752230030",
    "name": "Chhattisgarh Institute of Medical Sciences Hospital",
    "operator:type": "government",
    "source": "OpenGovernmentData",
    "website": "https://cimsbilaspur.ac.in/"
  }
},
{
  "type": "node",
  "id": 4421487645,
  "lat": 22.0721506,
  "lon": 82.1716350,
  "tags": {
    "amenity": "hospital",
    "name": "lal chandani hospital"
  }
},
{
  "type": "node",
  "id": 4434001990,
  "lat": 19.6746102,
  "lon": 80.3209338,
  "tags": {
    "amenity": "hospital",
    "name:en": "555555555"
  }
},
{
  "type": "node",
  "id": 4445104811,
  "lat": 21.2130814,
  "lon": 81.6537238,
  "tags": {
    "addr:city": "Raipur",
    "addr:district": "Raipur",
    "addr:full": "(Ramkrishna Care Medical Sciences Pvt Ltd) Aurobindo Enclave,Pachpedi Naka,Dhamatri Road",
    "addr:postcode": "492001",
    "addr:state": "Chhattisgarh",
    "addr:street": "Aurobindo Enclave, Pachpedi Naka, Dhamtari Road, NH43,",
    "amenity": "hospital",
    "emergency": "no",
    "name": "Ramkrishna Care Hospital",
    "phone": "+91 7713003300",
    "source": "OpenGovernmentData",
    "website": "https://www.carehospitals.com/"
  }
},
{
  "type": "node",
  "id": 4445112827,
  "lat": 21.2132613,
  "lon": 81.6577360,
  "tags": {
    "addr:city": "Raipur",
    "addr:district": "Raipur",
    "addr:full": "Dhamtari Road, Lalpur Near Pachpedi Naka",
    "addr:postcode": "492015",
    "addr:state": "Chhattisgarh",
    "addr:street": "Dhamtari Road, Lalpur",
    "amenity": "hospital",
    "emergency": "yes",
    "name": "Narayana Hrudayalaya Mmi Hospital (Managed By Narayana Hrudayalaya Pvt Ltd - Bangalore) - Raipur",
    "phone": "+91 7714210901",
    "source": "OpenGovernmentData"
  }
},
{
  "type": "node",
  "id": 4445113471,
  "lat": 21.2584938,
  "lon": 81.6060273,
  "tags": {
    "addr:city": "Raipur",
    "addr:district": "Raipur",
    "addr:full": "Kota Gudhiyari Road, Behind Hotel Piccadilly",
    "addr:postcode": "492010",
    "addr:state": "Chhattisgarh",
    "addr:street": "Gudhiyari Road, Behind hotel piccadily, kota",
    "amenity": "hospital",
    "contact:phone": "7712575833",
    "emergency": "yes",
    "name": "Suyash Superspeciality Hospital",
    "phone": "+91 7712575275",
    "source": "OpenGovernmentData",
    "website": "www.suyashhospitalsraipur.com"
  }
},
{
  "type": "node",
  "id": 4445119946,
  "lat": 21.2131689,
  "lon": 81.6561777,
  "tags": {
    "addr:city": "Raipur",
    "addr:postcode": "492001",
    "addr:street": "Infront of colors mall, Dhamtari road",
    "amenity": "hospital",
    "emergency": "yes",
    "name": "Shri Ganesh Vinayak Eye Hospital",
    "phone": "+91 7714077741",
    "website": "https://sgveh.com/"
  }
},
{
  "type": "node",
  "id": 4445129008,
  "lat": 21.2520112,
  "lon": 81.6632415,
  "tags": {
    "addr:city": "Raipur",
    "addr:district": "Raipur",
    "addr:full": "Sector - 1, Shankar Nagar",
    "addr:postcode": "492007",
    "addr:state": "Chhattisgarh",
    "addr:street": "Infront of shankar nagargarden, main road, sector-1, shankar nagar,",
    "amenity": "hospital",
    "contact:phone": "7712425778",
    "emergency": "yes",
    "name": "Vardaan Hospital (Unit Of Jindal Medicare)",
    "phone": "+91 7712425778",
    "source": "OpenGovernmentData",
    "website": "www.vardaanhospital.com"
  }
},
{
  "type": "node",
  "id": 4445137285,
  "lat": 21.2349337,
  "lon": 81.6413322,
  "tags": {
    "addr:city": "Raipur",
    "addr:district": "Raipur",
    "addr:full": "Opposite Ashirwad Bhawan, Byron Bazar",
    "addr:postcode": "492001",
    "addr:state": "Chhattisgarh",
    "addr:street": "Near mahila police thane, byron bazar road",
    "amenity": "hospital",
    "emergency": "yes",
    "name": "Bal Gopal Children Hospital and Research Institute",
    "phone": "+91 7714225600",
    "source": "OpenGovernmentData",
    "website": "www.balgopalhospital.in"
  }
},
{
  "type": "node",
  "id": 4445146001,
  "lat": 21.2403202,
  "lon": 81.6293508,
  "tags": {
    "addr:city": "Raipur",
    "addr:postcode": "492001",
    "addr:street": "TatyaparaChowk, GE road, Tatyapara Raipur",
    "amenity": "hospital",
    "name": "Yashwant Hospital",
    "phone": "+91 7712539333",
    "website": "https://www.vyhospital.in/"
  }
},
{
  "type": "node",
  "id": 4513009489,
  "lat": 21.6611692,
  "lon": 82.1411607,
  "tags": {
    "amenity": "hospital",
    "name": "Balodabazar",
    "name:en": "Balodabazar",
    "name:hi": "बलौदाबाजार"
  }
},
{
  "type": "node",
  "id": 4711002386,
  "lat": 21.2603620,
  "lon": 81.6587146,
  "tags": {
    "addr:city": "raipur",
    "addr:postcode": "492001",
    "addr:street": "Beside crystal arcade",
    "amenity": "hospital",
    "description": "Near Lodhipara chowk",
    "emergency": "yes",
    "name": "Mittal Hospital",
    "operator": "farhan"
  }
},
{
  "type": "node",
  "id": 4713564921,
  "lat": 21.2075561,
  "lon": 81.4013372,
  "tags": {
    "addr:district": "Durg",
    "addr:full": "New Khursipar , G. E. Road",
    "addr:postcode": "491001",
    "addr:state": "Chhattisgarh",
    "amenity": "hospital",
    "name": "Gindodi Devi Memorial Charitable Reserch Center",
    "source": "OpenGovernmentData"
  }
},
{
  "type": "node",
  "id": 4714398161,
  "lat": 21.2274864,
  "lon": 81.6480755,
  "tags": {
    "amenity": "hospital",
    "name": "jain mandir"
  }
},
{
  "type": "node",
  "id": 4714398175,
  "lat": 21.2278656,
  "lon": 81.6484364,
  "tags": {
    "amenity": "hospital",
    "name": "chandak hospital"
  }
},
{
  "type": "node",
  "id": 4714658051,
  "lat": 21.2506345,
  "lon": 81.6499110,
  "tags": {
    "amenity": "hospital",
    "name": "sukriti hospital"
  }
},
{
  "type": "node",
  "id": 4796666412,
  "lat": 18.6872123,
  "lon": 83.9488338,
  "tags": {
    "addr:block": "Pathapatnam",
    "addr:city": "Hiramandalam",
    "addr:district": "Srikakulam",
    "addr:full": "Mainroad, Hiramandalam",
    "addr:postcode": "532459",
    "addr:state": "Andhra Pradesh",
    "addr:street": "Subhalaya",
    "addr:subdistrict": "Hiramandalam Mandal",
    "amenity": "hospital",
    "contact:phone": "8946253332",
    "emergency": "yes",
    "name": "Government Primary Hospital",
    "source": "OpenGovernmentData"
  }
},
{
  "type": "node",
  "id": 4881270356,
  "lat": 21.4577668,
  "lon": 80.1954880,
  "tags": {
    "addr:district": "Gondiya",
    "addr:full": "Near Indira Gandhi Stadium, Nehru Square, District Gondia",
    "addr:postcode": "441601",
    "addr:state": "Maharashtra",
    "amenity": "hospital",
    "description": "District Hospital",
    "name": "K.T.S. General Hosptial, Gondia",
    "source": "OpenGovernmentData"
  }
},
{
  "type": "node",
  "id": 4927222165,
  "lat": 22.0681269,
  "lon": 81.6912056,
  "tags": {
    "addr:housenumber": "mungeli",
    "addr:street": "NH130A",
    "amenity": "hospital",
    "emergency": "yes",
    "healthcare": "hospital",
    "name": "agrwal hospital",
    "operator": "yash"
  }
},
{
  "type": "node",
  "id": 4994374903,
  "lat": 21.4005479,
  "lon": 81.8506453,
  "tags": {
    "addr:city": "Raipur",
    "addr:housenumber": "Dipo para",
    "addr:street": "Bangoli",
    "amenity": "hospital",
    "name": "primary government hospital Bangoli",
    "operator": "Government"
  }
},
{
  "type": "node",
  "id": 4995334117,
  "lat": 21.2661950,
  "lon": 81.6181222,
  "tags": {
    "addr:housenumber": "Janta Colony",
    "addr:street": "Gudhiyari",
    "amenity": "hospital",
    "name": "Shri Sai Ganesh Hospital"
  }
},
{
  "type": "node",
  "id": 5292958786,
  "lat": 21.2314440,
  "lon": 81.6030309,
  "tags": {
    "amenity": "hospital",
    "healthcare": "hospital",
    "name": "Om Hospital"
  }
},
{
  "type": "node",
  "id": 5301710648,
  "lat": 21.2077162,
  "lon": 81.4011762,
  "tags": {
    "amenity": "hospital",
    "healthcare": "hospital",
    "name": "Manoharlal Government Hospital"
  }
},
{
  "type": "node",
  "id": 5314535652,
  "lat": 21.0553950,
  "lon": 81.7471376,
  "tags": {
    "amenity": "hospital",
    "healthcare": "hospital",
    "name": "jeevandeep hospital"
  }
},
{
  "type": "node",
  "id": 5322573110,
  "lat": 21.2663177,
  "lon": 81.6639038,
  "tags": {
    "amenity": "hospital",
    "healthcare": "hospital",
    "name": "mandi gate"
  }
},
{
  "type": "node",
  "id": 5556295934,
  "lat": 20.2817382,
  "lon": 81.4867912,
  "tags": {
    "addr:district": "Kanker",
    "addr:full": "Kanker",
    "addr:postcode": "494334",
    "addr:state": "Chhattisgarh",
    "amenity": "hospital",
    "healthcare": "hospital",
    "healthcare:speciality": "general",
    "name": "Mother Mary Hospital, Kanker",
    "source": "OpenGovernmentData"
  }
},
{
  "type": "node",
  "id": 5556568170,
  "lat": 21.2284143,
  "lon": 81.6545326,
  "tags": {
    "addr:district": "Raipur",
    "addr:full": "C-63, Shailendra Nagar, Near Rajendra Nagar Police Chowki",
    "addr:postcode": "492001",
    "addr:state": "Chhattisgarh",
    "amenity": "hospital",
    "healthcare": "hospital",
    "name": "Navkar Hospital and Maternity Home",
    "source": "OpenGovernmentData"
  }
},
{
  "type": "node",
  "id": 5747657985,
  "lat": 18.7791553,
  "lon": 84.1271151,
  "tags": {
    "addr:city": "paralkhemundi",
    "addr:housenumber": "1",
    "addr:street": "entry way",
    "amenity": "hospital",
    "healthcare": "hospital",
    "name": "animal hospitel",
    "operator": "government"
  }
},
{
  "type": "node",
  "id": 5768590614,
  "lat": 19.0714918,
  "lon": 83.8087029,
  "tags": {
    "addr:city": "gunupur",
    "addr:postcode": "765022",
    "addr:street": "medical chowk",
    "amenity": "hospital",
    "healthcare": "hospital",
    "name": "government hospital"
  }
},
{
  "type": "node",
  "id": 5768604040,
  "lat": 19.0717009,
  "lon": 83.8093118,
  "tags": {
    "addr:city": "gunupur",
    "addr:district": "Rayagada",
    "addr:full": "Near Police Station, Gunupur",
    "addr:postcode": "765022",
    "addr:state": "Odisha",
    "addr:street": "medical chowk",
    "addr:subdistrict": "Gunupur",
    "amenity": "hospital",
    "description": "Sub-District Hospital",
    "healthcare": "hospital",
    "name": "Govt. Hospital, Gunupur",
    "source": "OpenGovernmentData"
  }
},
{
  "type": "node",
  "id": 6008131671,
  "lat": 21.3057768,
  "lon": 81.6355630,
  "tags": {
    "addr:city": "birgaon",
    "addr:housenumber": "dewangan auto center",
    "addr:postcode": "493221",
    "addr:street": "bilashpur road",
    "amenity": "hospital",
    "healthcare": "hospital",
    "name": "sharda hospital birgaon"
  }
},
{
  "type": "node",
  "id": 6008131673,
  "lat": 21.3054532,
  "lon": 81.6334950,
  "tags": {
    "addr:city": "Birgaon",
    "addr:postcode": "493221",
    "amenity": "hospital",
    "healthcare": "hospital",
    "name": "N.K.D. Hospital"
  }
},
{
  "type": "node",
  "id": 6022759660,
  "lat": 21.2342393,
  "lon": 81.6118512,
  "tags": {
    "amenity": "hospital",
    "healthcare": "hospital"
  }
},
{
  "type": "node",
  "id": 6024936693,
  "lat": 21.2428278,
  "lon": 81.5936087,
  "tags": {
    "amenity": "hospital",
    "emergency": "no",
    "healthcare": "hospital",
    "name": "hospital pt. rsu"
  }
},
{
  "type": "node",
  "id": 6026832450,
  "lat": 21.2284159,
  "lon": 81.6652611,
  "tags": {
    "amenity": "hospital",
    "healthcare": "hospital",
    "name": "Nursing Home"
  }
},
{
  "type": "node",
  "id": 6138475086,
  "lat": 20.9541995,
  "lon": 81.8765709,
  "tags": {
    "amenity": "hospital",
    "name": "hospital "
  }
},
{
  "type": "node",
  "id": 6280156794,
  "lat": 20.4826283,
  "lon": 81.0847547,
  "tags": {
    "amenity": "hospital",
    "healthcare": "hospital",
    "name": "Government Hospital"
  }
},
{
  "type": "node",
  "id": 6283904436,
  "lat": 21.2514868,
  "lon": 81.6023593,
  "tags": {
    "addr:city": "raipur",
    "addr:street": "GE Road",
    "amenity": "hospital",
    "healthcare": "hospital",
    "name": "Dispensary"
  }
},
{
  "type": "node",
  "id": 6347848292,
  "lat": 18.8158246,
  "lon": 82.7150257,
  "tags": {
    "amenity": "hospital",
    "healthcare": "hospital",
    "name": "Staatliches Krankenhaus"
  }
},
{
  "type": "node",
  "id": 6598413633,
  "lat": 19.1813963,
  "lon": 83.4119597,
  "tags": {
    "amenity": "hospital",
    "name": "hospital"
  }
},
{
  "type": "node",
  "id": 6735088281,
  "lat": 22.0267354,
  "lon": 82.9614052,
  "tags": {
    "amenity": "hospital",
    "healthcare": "hospital",
    "name": "Hari Hospital"
  }
},
{
  "type": "node",
  "id": 6738147721,
  "lat": 22.0290699,
  "lon": 82.9594172,
  "tags": {
    "amenity": "hospital",
    "healthcare": "hospital",
    "name": "Mishra Hospital"
  }
},
{
  "type": "node",
  "id": 6743643121,
  "lat": 22.0271227,
  "lon": 82.9580776,
  "tags": {
    "addr:city": "Sakti",
    "addr:district": "Janjgir - Champa",
    "addr:full": "Block Sakti",
    "addr:postcode": "495689",
    "addr:state": "Chhattisgarh",
    "addr:subdistrict": "Sakti",
    "amenity": "hospital",
    "healthcare": "hospital",
    "name": "Goverment Hospital, Sakti",
    "source": "OpenGovernmentData"
  }
},
{
  "type": "node",
  "id": 6758576585,
  "lat": 18.1094191,
  "lon": 83.3979464,
  "tags": {
    "addr:district": "Vizianagaram",
    "addr:full": "Leela Mahal Theatre, Railway Station Road, Vizianagaram",
    "addr:postcode": "535003",
    "addr:state": "Andhra Pradesh",
    "amenity": "hospital",
    "check_date": "2024-10-17",
    "contact:phone": "089222 - 23225",
    "email": "pvrhospital@gmail.com",
    "name": "Sri Sai P.V.R. Hospitals",
    "source": "OpenGovernmentData",
    "website": "www.srisaipvrhospitals.in"
  }
},
{
  "type": "node",
  "id": 6758594237,
  "lat": 18.4615184,
  "lon": 83.6583070,
  "tags": {
    "addr:district": "Srikakulam",
    "addr:full": "Hospital Rd, GMR Nagar, Near Andhra Bank GMR Nagar, Srikakulam District, Razam",
    "addr:postcode": "532127",
    "addr:state": "Andhra Pradesh",
    "amenity": "hospital",
    "contact:mobile": "7032823181",
    "email": "contact@gmrcarehospitals.in",
    "fax": "8941253183",
    "healthcare": "hospital",
    "name": "Gmr Varalaxmi Care Hospital",
    "opening_hours": "24/7",
    "source": "OpenGovernmentData",
    "website": "https://gmrcarehospitals.in/"
  }
},
{
  "type": "node",
  "id": 6758616517,
  "lat": 18.4156427,
  "lon": 84.0396018,
  "tags": {
    "addr:district": "Srikakulam",
    "addr:full": "Bharat Healthcare Complex Opp Rtc Complex, Jayalakshmi Nagar Narasannapet",
    "addr:postcode": "532421",
    "addr:state": "Andhra Pradesh",
    "amenity": "hospital",
    "contact:phone": "08942277455; 277661",
    "name": "Vaatsalya Hospital - Srikakulam",
    "source": "OpenGovernmentData"
  }
},
{
  "type": "node",
  "id": 6758618607,
  "lat": 18.1087193,
  "lon": 83.4103516,
  "tags": {
    "addr:district": "Vizianagaram",
    "addr:full": "Pushpagiri Eye Hospital (A Division Of Pushpagiri Health Care Hospital Pvt Ltd) Survey No.521, Alak Nagar, Ayodhya Road, . ( Near Ttd Kalyana Mandapam)",
    "addr:postcode": "535002",
    "addr:state": "Andhra Pradesh",
    "amenity": "hospital",
    "contact:phone": "235049; 59",
    "healthcare": "hospital",
    "name": "Pushpagiri Eye Hospital",
    "source": "OpenGovernmentData"
  }
},
{
  "type": "node",
  "id": 6758691770,
  "lat": 18.2997004,
  "lon": 83.9016612,
  "tags": {
    "addr:district": "Srikakulam",
    "addr:full": "Prakash Nagar Colony",
    "addr:postcode": "532001",
    "addr:state": "Andhra Pradesh",
    "amenity": "hospital",
    "contact:phone": "21010",
    "name": "K C Eye Hospital",
    "opening_hours": "24/7",
    "source": "OpenGovernmentData"
  }
},
{
  "type": "node",
  "id": 6758778932,
  "lat": 18.3045184,
  "lon": 83.8818598,
  "tags": {
    "addr:district": "Srikakulam",
    "addr:full": "P.N.Colony Junction, Near Datta Temple, New Bridge Road, Srikakulam",
    "addr:postcode": "532001",
    "addr:state": "Andhra Pradesh",
    "amenity": "hospital",
    "contact:phone": "+91-8374-998824, 271118",
    "email": "assistance@kimshospitals.com",
    "fax": "+91-8942-27-1117",
    "name": "Kims Sai Seshadri Hospital",
    "opening_hours": "24/7",
    "source": "OpenGovernmentData",
    "website": "www.kimshospitals.com"
  }
},
{
  "type": "node",
  "id": 6758856887,
  "lat": 18.1073095,
  "lon": 83.4008244,
  "tags": {
    "addr:district": "Vizianagaram",
    "addr:full": "Near Rtc Complex, Siddarth Nagar, Balaji Nagar",
    "addr:postcode": "535003",
    "addr:state": "Andhra Pradesh",
    "amenity": "hospital",
    "contact:phone": "08922225850; 223921; 227482",
    "name": "Tirumala Nursing Home -Vizianagaram",
    "opening_hours": "24/7",
    "source": "OpenGovernmentData"
  }
},
{
  "type": "node",
  "id": 6761054453,
  "lat": 18.1084286,
  "lon": 83.4116846,
  "tags": {
    "addr:district": "Vizianagaram",
    "addr:full": "Gurajada Apparao Street,",
    "addr:postcode": "535002",
    "addr:state": "Andhra Pradesh",
    "amenity": "hospital",
    "healthcare": "hospital",
    "name": "Andhra Children Hospital",
    "source": "OpenGovernmentData"
  }
},
{
  "type": "node",
  "id": 6761112987,
  "lat": 18.1143921,
  "lon": 83.4132370,
  "tags": {
    "addr:district": "Vizianagaram",
    "addr:full": "Three Lamps Junction",
    "addr:postcode": "535002",
    "addr:state": "Andhra Pradesh",
    "amenity": "hospital",
    "contact:phone": "8922225102",
    "fax": "22470",
    "healthcare": "hospital",
    "name": "Jyothi Nursing Home - Vizianagaram",
    "opening_hours": "24/7",
    "source": "OpenGovernmentData"
  }
},
{
  "type": "node",
  "id": 6761128970,
  "lat": 18.1145916,
  "lon": 83.4133644,
  "tags": {
    "addr:district": "Vizianagaram",
    "addr:full": "H.No: 15-1-45, Three Lamps Junction, A.G.Road",
    "addr:postcode": "535002",
    "addr:state": "Andhra Pradesh",
    "amenity": "hospital",
    "contact:phone": "227131; 225777",
    "healthcare": "hospital",
    "name": "Venkata Padma Hospital",
    "source": "OpenGovernmentData"
  }
},
{
  "type": "node",
  "id": 6761133544,
  "lat": 18.5753463,
  "lon": 83.3487714,
  "tags": {
    "addr:district": "Vizianagaram",
    "addr:full": "Near Railway Junction",
    "addr:postcode": "535558",
    "addr:state": "Andhra Pradesh",
    "amenity": "hospital",
    "name": "Sri Hanuman Children Hospital",
    "source": "OpenGovernmentData"
  }
},
{
  "type": "node",
  "id": 6768353412,
  "lat": 18.1078155,
  "lon": 83.4013259,
  "tags": {
    "addr:district": "Vizianagaram",
    "addr:full": "Rtc Complex Road Rtc Complex Road",
    "addr:postcode": "535003",
    "addr:state": "Andhra Pradesh",
    "amenity": "hospital",
    "contact:phone": "8922221234",
    "name": "Sri Sai Super Speciality Hospital",
    "opening_hours": "24/7",
    "source": "OpenGovernmentData"
  }
},
{
  "type": "node",
  "id": 6768545567,
  "lat": 17.9135879,
  "lon": 82.8137411,
  "tags": {
    "addr:district": "Visakhapatnam",
    "addr:full": "V.Madugula, Visakhapatnam",
    "addr:postcode": "531027",
    "addr:state": "Andhra Pradesh",
    "amenity": "hospital",
    "name": "St.Ann's Hospital",
    "source": "OpenGovernmentData"
  }
},
{
  "type": "node",
  "id": 6768823310,
  "lat": 18.1078958,
  "lon": 83.3997153,
  "tags": {
    "addr:district": "Vizianagaram",
    "addr:full": "Opp R.T.C. Complex, Thotapalem Junction",
    "addr:postcode": "535003",
    "addr:state": "Andhra Pradesh",
    "amenity": "hospital",
    "name": "Uday Nursing Home",
    "source": "OpenGovernmentData"
  }
},
{
  "type": "node",
  "id": 6770855127,
  "lat": 18.2928691,
  "lon": 83.8965757,
  "tags": {
    "addr:district": "Srikakulam",
    "addr:full": "Opp: Hero Honda Showroom, New Bridge Road Day and Night Junction",
    "addr:postcode": "532001",
    "addr:state": "Andhra Pradesh",
    "amenity": "hospital",
    "contact:phone": "8942227766",
    "fax": "22 7766",
    "name": "Sri Surya Hospital - Srikakulam",
    "source": "OpenGovernmentData"
  }
},
{
  "type": "node",
  "id": 6770867783,
  "lat": 18.2989491,
  "lon": 83.9037935,
  "tags": {
    "addr:district": "Srikakulam",
    "addr:full": "Opp: Ramalaxmana Theatre Opp: Ramalaxmana Theatre Srikakulam 532001 Srikakulam",
    "addr:postcode": "532001",
    "addr:state": "Andhra Pradesh",
    "amenity": "hospital",
    "contact:phone": "8942221166",
    "healthcare": "hospital",
    "name": "Santhi hospitals",
    "source": "OpenGovernmentData"
  }
},
{
  "type": "node",
  "id": 6770960649,
  "lat": 18.1218416,
  "lon": 83.4103723,
  "tags": {
    "addr:district": "Vizianagaram",
    "addr:full": "Putchala Street, Near Old Bus Stand",
    "addr:postcode": "535001",
    "addr:state": "Andhra Pradesh",
    "amenity": "hospital",
    "contact:phone": "8922225722",
    "healthcare": "hospital",
    "name": "Swamy Eye Hospital",
    "source": "OpenGovernmentData"
  }
},
{
  "type": "node",
  "id": 6771341350,
  "lat": 18.4119635,
  "lon": 83.9032531,
  "tags": {
    "addr:district": "Srikakulam",
    "addr:full": "H.No: 9-1-236, Main Road",
    "addr:postcode": "532185",
    "addr:state": "Andhra Pradesh",
    "amenity": "hospital",
    "name": "Sri Srinivasa Nursing Home - Srikakulam",
    "source": "OpenGovernmentData"
  }
},
{
  "type": "node",
  "id": 6773695707,
  "lat": 18.1101673,
  "lon": 83.1353956,
  "tags": {
    "addr:district": "Visakhapatnam",
    "addr:full": "Near Sai Lodge, , Venkateshwara Cinema Hall",
    "addr:postcode": "535145",
    "addr:state": "Andhra Pradesh",
    "amenity": "hospital",
    "name": "Prasanna Surgical Nursing Home",
    "source": "OpenGovernmentData"
  }
},
{
  "type": "node",
  "id": 6776348753,
  "lat": 18.7460504,
  "lon": 84.0903170,
  "tags": {
    "addr:district": "Srikakulam",
    "addr:full": "All Andhra Road, Dno: 10-120, Pathapatnam",
    "addr:postcode": "532213",
    "addr:state": "Andhra Pradesh",
    "amenity": "hospital",
    "contact:mobile": "0894-6255251, 9966864184",
    "email": "info@kanakadurganursinghome.com",
    "name": "Kanaka Durga Nurisng Home",
    "source": "OpenGovernmentData",
    "website": "http://kanakadurganursinghome.com/"
  }
},
{
  "type": "node",
  "id": 6776465109,
  "lat": 18.5758192,
  "lon": 83.3545992,
  "tags": {
    "addr:district": "Vizianagaram",
    "addr:full": "Hospital Road, Near Mallammadevi Park",
    "addr:postcode": "535558",
    "addr:state": "Andhra Pradesh",
    "amenity": "hospital",
    "name": "Bobbili Eye Hospital (P) Ltd",
    "source": "OpenGovernmentData"
  }
},
{
  "type": "node",
  "id": 6778951344,
  "lat": 18.3076391,
  "lon": 83.8936803,
  "tags": {
    "addr:district": "Srikakulam",
    "addr:full": "Day and Night Junction, Beside New Bridge",
    "addr:postcode": "532001",
    "addr:state": "Andhra Pradesh",
    "amenity": "hospital",
    "name": "Amrutha Hospital - Srikakulam",
    "opening_hours": "24/7",
    "source": "OpenGovernmentData"
  }
},
{
  "type": "node",
  "id": 6778998198,
  "lat": 18.7764429,
  "lon": 83.4256388,
  "tags": {
    "addr:district": "Vizianagaram",
    "addr:full": "Main Road, Parvathipuram",
    "addr:postcode": "535501",
    "addr:state": "Andhra Pradesh",
    "amenity": "hospital",
    "name": "Karshaka Maharshi Hospital",
    "opening_hours": "24/7",
    "source": "OpenGovernmentData"
  }
},
{
  "type": "node",
  "id": 6782056030,
  "lat": 18.3089913,
  "lon": 83.8965288,
  "tags": {
    "addr:district": "Srikakulam",
    "addr:full": "2-2-131,Lllisipuram (West),Srikakulam",
    "addr:postcode": "532001",
    "addr:state": "Andhra Pradesh",
    "amenity": "hospital",
    "contact:email": "bagguhospital2008@gmail.com",
    "contact:mobile": "9490904141",
    "contact:phone": "279696",
    "name": "Sarojini Devi Hospital",
    "opening_hours": "24/7",
    "source": "OpenGovernmentData",
    "website": "http://www.bagguhospitals.co.in/"
  }
},
{
  "type": "node",
  "id": 6782140190,
  "lat": 18.1066938,
  "lon": 83.3978122,
  "tags": {
    "addr:district": "Vizianagaram",
    "addr:full": "Opp: Rtc Complex",
    "addr:postcode": "535001",
    "addr:state": "Andhra Pradesh",
    "amenity": "hospital",
    "contact:phone": "236759",
    "name": "Venkata Rama Hospital",
    "opening_hours": "24/7",
    "source": "OpenGovernmentData"
  }
},
{
  "type": "node",
  "id": 6782151668,
  "lat": 18.1134533,
  "lon": 83.4125322,
  "tags": {
    "addr:district": "Vizianagaram",
    "addr:full": "Near Sri Pydithalli Ammavari Temple, 3 Lamps area",
    "addr:postcode": "535002",
    "addr:state": "Andhra Pradesh",
    "amenity": "hospital",
    "contact:mobile": "8912578887",
    "healthcare": "hospital",
    "name": "Vijaya Hospital - Vizianagaram",
    "opening_hours": "24/7",
    "source": "OpenGovernmentData"
  }
},
{
  "type": "node",
  "id": 6789576725,
  "lat": 17.8269229,
  "lon": 82.9366171,
  "tags": {
    "addr:district": "Visakhapatnam",
    "addr:full": "Andhra Bank Road, Chodavaram, Visakha-531036",
    "addr:postcode": "531036",
    "addr:state": "Andhra Pradesh",
    "amenity": "hospital",
    "name": "Sri Rama Mother and Child Hospital",
    "opening_hours": "24/7",
    "source": "OpenGovernmentData"
  }
},
{
  "type": "node",
  "id": 6789695495,
  "lat": 18.7773533,
  "lon": 83.4248435,
  "tags": {
    "addr:district": "Vizianagaram",
    "addr:full": "Main Road, Parvatipuram",
    "addr:postcode": "535501",
    "addr:state": "Andhra Pradesh",
    "amenity": "hospital",
    "name": "Jayasree Hospital",
    "opening_hours": "24/7",
    "source": "OpenGovernmentData"
  }
},
{
  "type": "node",
  "id": 6789818473,
  "lat": 18.3067173,
  "lon": 83.8930017,
  "tags": {
    "addr:district": "Srikakulam",
    "addr:full": "New Bridge Road",
    "addr:postcode": "532001",
    "addr:state": "Andhra Pradesh",
    "amenity": "hospital",
    "contact:phone": "8942228455",
    "name": "Sindhura Hospitals",
    "opening_hours": "24/7",
    "source": "OpenGovernmentData"
  }
},
{
  "type": "node",
  "id": 6789859755,
  "lat": 18.1083432,
  "lon": 83.4000573,
  "tags": {
    "addr:district": "Vizianagaram",
    "addr:full": "Behind Fathima Plaza, Beside Rtc Complex",
    "addr:postcode": "535002",
    "addr:state": "Andhra Pradesh",
    "amenity": "hospital",
    "contact:phone": "28922-232626",
    "name": "Vikas Hospital",
    "opening_hours": "24/7",
    "source": "OpenGovernmentData"
  }
},
{
  "type": "node",
  "id": 6791983448,
  "lat": 18.1460213,
  "lon": 83.4424804,
  "tags": {
    "addr:district": "Vizianagaram",
    "addr:full": "H.No: 31-15, Nellimarla, Near MDO Office ,Vizianagaram",
    "addr:postcode": "535217",
    "addr:state": "Andhra Pradesh",
    "amenity": "hospital",
    "contact:mobile": "099499 14356",
    "name": "Maharajahs Institute Of Medical Sciences",
    "source": "OpenGovernmentData"
  }
},
{
  "type": "node",
  "id": 6792208959,
  "lat": 18.1115210,
  "lon": 83.4138371,
  "tags": {
    "addr:district": "Vizianagaram",
    "addr:full": "H.No: 18-1-10, Zidduvari Street, Near Bonkula Dibba, Kota Junction",
    "addr:postcode": "535002",
    "addr:state": "Andhra Pradesh",
    "amenity": "hospital",
    "contact:mobile": "8922229917",
    "contact:phone": "08922-229917,229927",
    "healthcare": "hospital",
    "name": "Muvva Gopala Hospitals Pvt Ltd",
    "source": "OpenGovernmentData"
  }
},
{
  "type": "node",
  "id": 6794593273,
  "lat": 17.8796711,
  "lon": 83.3740931,
  "tags": {
    "addr:district": "Visakhapatnam",
    "addr:full": "Visakhapatnam",
    "addr:postcode": "530052",
    "addr:state": "Andhra Pradesh",
    "amenity": "hospital",
    "healthcare": "hospital",
    "name": "Prema Hospital",
    "source": "Local Knowledge"
  }
},
{
  "type": "node",
  "id": 6798009309,
  "lat": 18.3055739,
  "lon": 83.8941476,
  "tags": {
    "addr:district": "Srikakulam",
    "addr:full": "Palakonda Road.",
    "addr:postcode": "532001",
    "addr:state": "Andhra Pradesh",
    "amenity": "hospital",
    "name": "Pavani Nursing Home",
    "source": "OpenGovernmentData"
  }
},
{
  "type": "node",
  "id": 6798036388,
  "lat": 18.3014721,
  "lon": 83.9032732,
  "tags": {
    "addr:district": "Srikakulam",
    "addr:full": "Old Bus Stand",
    "addr:postcode": "532001",
    "addr:state": "Andhra Pradesh",
    "amenity": "hospital",
    "contact:phone": "8942222221",
    "name": "Vijaya Harsha Thalli Pillala Hospital",
    "source": "OpenGovernmentData"
  }
},
{
  "type": "node",
  "id": 6801242995,
  "lat": 18.2912137,
  "lon": 83.5478201,
  "tags": {
    "addr:district": "Vizianagaram",
    "addr:full": "Shreeramnagar",
    "addr:postcode": "535101",
    "addr:state": "Andhra Pradesh",
    "amenity": "hospital",
    "name": "O.E.U.Lions Eye Hospital",
    "source": "OpenGovernmentData"
  }
},
{
  "type": "node",
  "id": 6804806174,
  "lat": 18.2896412,
  "lon": 83.8964543,
  "tags": {
    "addr:district": "Srikakulam",
    "addr:full": "Opp: Andhra Bank Rcb New Bridge Road",
    "addr:postcode": "532001",
    "addr:state": "Andhra Pradesh",
    "amenity": "hospital",
    "contact:phone": "8942223244",
    "fax": "22 3244",
    "name": "Adithya Multi Specialty Dental Hospital",
    "source": "OpenGovernmentData"
  }
},
{
  "type": "node",
  "id": 6806929617,
  "lat": 18.1196442,
  "lon": 83.4041671,
  "tags": {
    "addr:district": "Vizianagaram",
    "addr:full": "H.No: 4-1-11, Kothagraharam, Near Vusirikala Choultry",
    "addr:postcode": "535001",
    "addr:state": "Andhra Pradesh",
    "amenity": "hospital",
    "contact:phone": "8922225635",
    "healthcare": "hospital",
    "name": "Venkateswara Nursing Home",
    "source": "OpenGovernmentData"
  }
},
{
  "type": "node",
  "id": 6830428379,
  "lat": 18.3427300,
  "lon": 80.4302500,
  "tags": {
    "addr:district": "Warangal Rural",
    "addr:full": "Eturnagaram",
    "addr:postcode": "506344",
    "addr:state": "Telangana",
    "amenity": "hospital",
    "name": "RMP Hospital",
    "operator:type": "government",
    "source": "OpenGovernmentData"
  }
},
{
  "type": "node",
  "id": 6830806558,
  "lat": 17.9292098,
  "lon": 80.8235016,
  "tags": {
    "addr:district": "Bhadradri Kothagudem",
    "addr:full": "Grace Mission High School, Ashok Nagar, Manuguru",
    "addr:postcode": "507117",
    "addr:state": "Telangana",
    "amenity": "hospital",
    "name": "Government Area Hospital",
    "source": "OpenGovernmentData"
  }
},
{
  "type": "node",
  "id": 6830806640,
  "lat": 18.0713477,
  "lon": 80.8289625,
  "tags": {
    "addr:district": "Bhadradri Kothagudem",
    "addr:full": "cherla, TVS motors",
    "addr:postcode": "507133",
    "addr:state": "Telangana",
    "amenity": "hospital",
    "name": "Akhila Hospital",
    "source": "OpenGovernmentData"
  }
},
{
  "type": "node",
  "id": 6830806673,
  "lat": 17.9409489,
  "lon": 80.8159021,
  "tags": {
    "addr:district": "Bhadradri Kothagudem",
    "addr:full": "Plot No. 8-1 Satya Bhaskara Theatre, 59/1, Burgampadu Eturnagaram Road, Pilot Colony, Manuguru",
    "addr:postcode": "507117",
    "addr:state": "Telangana",
    "amenity": "hospital",
    "name": "Sravya Nursing Home",
    "operator:type": "private",
    "source": "OpenGovernmentData"
  }
},
{
  "type": "node",
  "id": 6830806721,
  "lat": 18.0408190,
  "lon": 80.7312535,
  "tags": {
    "addr:district": "Bhadradri Kothagudem",
    "addr:full": "Tadvai Bayyaram road",
    "addr:postcode": "507117",
    "addr:state": "Telangana",
    "amenity": "hospital",
    "name": "Govt Hospital, RC Puram",
    "source": "OpenGovernmentData"
  }
},
{
  "type": "node",
  "id": 6830806777,
  "lat": 17.9403502,
  "lon": 80.8163740,
  "tags": {
    "addr:district": "Bhadradri Kothagudem",
    "addr:full": "Burgampadu Eturnagaram Road,beside inet computers, Pilot Colony, Manuguru",
    "addr:postcode": "507117",
    "addr:state": "Telangana",
    "amenity": "hospital",
    "name": "Sri Pragathi Hospital",
    "operator:type": "private",
    "source": "OpenGovernmentData"
  }
},
{
  "type": "node",
  "id": 6830806788,
  "lat": 18.0404547,
  "lon": 80.5717969,
  "tags": {
    "addr:district": "Bhadradri Kothagudem",
    "addr:full": "Karakagudem, Tadvai Bayyaram road",
    "addr:postcode": "507117",
    "addr:state": "Telangana",
    "amenity": "hospital",
    "name": "Government hospital Karakagudem",
    "source": "OpenGovernmentData"
  }
},
{
  "type": "node",
  "id": 6840282001,
  "lat": 18.1934820,
  "lon": 80.1664740,
  "tags": {
    "addr:district": "Mulugu",
    "addr:full": "Opp Ramalayam,Pasara",
    "addr:postcode": "506347",
    "addr:state": "Telangana",
    "amenity": "hospital",
    "name": "Kumaraswamy Hospital",
    "operator:type": "government",
    "source": "OpenGovernmentData"
  }
},
{
  "type": "node",
  "id": 6840282003,
  "lat": 18.2064835,
  "lon": 80.1016200,
  "tags": {
    "addr:district": "Mulugu",
    "addr:full": "Near POOJA DIGITAL STUDIO,Chalvai",
    "addr:postcode": "506344",
    "addr:state": "Telangana",
    "amenity": "hospital",
    "name": "Vety Hospital, Chavai",
    "operator:type": "private",
    "source": "OpenGovernmentData"
  }
},
{
  "type": "node",
  "id": 6840282038,
  "lat": 18.1925765,
  "lon": 80.1652469,
  "tags": {
    "addr:district": "Mulugu",
    "addr:full": "Near Forest Range Office,Pasara",
    "addr:postcode": "506347",
    "addr:state": "Telangana",
    "amenity": "hospital",
    "name": "Jaya Nursing Home",
    "operator:type": "private",
    "source": "OpenGovernmentData"
  }
},
{
  "type": "node",
  "id": 6840282069,
  "lat": 18.3239439,
  "lon": 80.4142601,
  "tags": {
    "addr:district": "Mulugu",
    "addr:full": "Near AP TWRJC(Girls),ETURUNAGARAM",
    "addr:postcode": "506344",
    "addr:state": "Telangana",
    "amenity": "hospital",
    "name": "Dist. Malarai Hospital",
    "source": "OpenGovernmentData"
  }
},
{
  "type": "node",
  "id": 6840282080,
  "lat": 18.2521042,
  "lon": 80.5130195,
  "tags": {
    "addr:district": "Mulugu",
    "addr:full": "Opp Womans World,Mangapet, Narsapur",
    "addr:postcode": "506172",
    "addr:state": "Telangana",
    "amenity": "hospital",
    "name": "janakamma hospital",
    "source": "OpenGovernmentData"
  }
},
{
  "type": "node",
  "id": 6840391482,
  "lat": 18.1909570,
  "lon": 80.1656550,
  "tags": {
    "addr:district": "Mulugu",
    "addr:full": "Beside M venkatesh new trends men's beauty parlour, Pasara",
    "addr:postcode": "506347",
    "addr:state": "Telangana",
    "amenity": "hospital",
    "geometry": "Point",
    "name": "Amrutha hospital,Pasara",
    "operator:type": "private",
    "source": "OpenGovernmentData"
  }
},
{
  "type": "node",
  "id": 6840391484,
  "lat": 18.3397470,
  "lon": 80.4280764,
  "tags": {
    "addr:district": "Mulugu",
    "addr:full": "Behind MADRAS HOTEL,Eturnagaram",
    "addr:postcode": "506344",
    "addr:state": "Telangana",
    "amenity": "hospital",
    "geometry": "Point",
    "name": "Dileep Eye Hospital",
    "operator:type": "government",
    "source": "OpenGovernmentData"
  }
},
{
  "type": "node",
  "id": 6840391494,
  "lat": 18.3001325,
  "lon": 80.5536690,
  "tags": {
    "addr:district": "Mulugu",
    "addr:full": "Near FRIENDS DIGITAL STUDIO,Venkatapuram",
    "addr:postcode": "507136",
    "addr:state": "Telangana",
    "amenity": "hospital",
    "geometry": "Point",
    "name": "Radha Krishna Murty Hospital",
    "source": "OpenGovernmentData"
  }
},
{
  "type": "node",
  "id": 6840391507,
  "lat": 18.1961280,
  "lon": 80.1295300,
  "tags": {
    "addr:district": "Mulugu",
    "addr:full": "Beside Swathi Hotels,Govindaraopet",
    "addr:postcode": "506344",
    "addr:state": "Telangana",
    "amenity": "hospital",
    "geometry": "Point",
    "name": "Gandhi Hospital",
    "operator:type": "government",
    "source": "OpenGovernmentData"
  }
},
{
  "type": "node",
  "id": 6868865811,
  "lat": 17.8231089,
  "lon": 83.2064905,
  "tags": {
    "amenity": "hospital",
    "healthcare": "hospital"
  }
},
{
  "type": "node",
  "id": 6908100805,
  "lat": 20.7185601,
  "lon": 81.5515459,
  "tags": {
    "addr:district": "Dhamtari",
    "addr:full": "Dhamtari",
    "addr:postcode": "493773",
    "addr:state": "Chhattisgarh",
    "amenity": "hospital",
    "name": "Dhamtari Christian Hospital",
    "source": "OpenGovernmentData"
  }
},
{
  "type": "node",
  "id": 6950645744,
  "lat": 21.2401756,
  "lon": 81.6622585,
  "tags": {
    "addr:district": "Raipur",
    "addr:full": "Telibandha",
    "addr:postcode": "492006",
    "addr:state": "Chhattisgarh",
    "amenity": "hospital",
    "name": "Karma Hospital",
    "source": "OpenGovernmentData"
  }
},
{
  "type": "node",
  "id": 6950645749,
  "lat": 21.2392112,
  "lon": 81.6621937,
  "tags": {
    "addr:district": "Raipur",
    "addr:full": "Near Shyam Nagar",
    "addr:postcode": "492001",
    "addr:state": "Chhattisgarh",
    "amenity": "hospital",
    "name": "Chhattisgarh Eye Hospital",
    "source": "OpenGovernmentData"
  }
},
{
  "type": "node",
  "id": 6950645773,
  "lat": 21.2233136,
  "lon": 81.6522994,
  "tags": {
    "addr:district": "Raipur",
    "addr:full": "B-19/5 Ring Road Tagore Nagar",
    "addr:postcode": "492001",
    "addr:state": "Chhattisgarh",
    "amenity": "hospital",
    "name": "Devi Laxmi Hospital",
    "source": "OpenGovernmentData"
  }
},
{
  "type": "node",
  "id": 6950646487,
  "lat": 21.2142649,
  "lon": 81.6503232,
  "tags": {
    "addr:district": "Raipur",
    "addr:full": "Infront Of Jain Mandir, Near Ramkrishna Care Hospital,Dawada Colony,Pachpedi Naka",
    "addr:postcode": "492001",
    "addr:state": "Chhattisgarh",
    "amenity": "hospital",
    "name": "Sanjeevani Cbcc Usa Cancer Hospital",
    "source": "OpenGovernmentData"
  }
},
{
  "type": "node",
  "id": 6953068861,
  "lat": 22.0762535,
  "lon": 82.1526289,
  "tags": {
    "addr:district": "Bilaspur",
    "addr:full": "Vinayak Netralaya, Prince Complex, Infront Of Cims O. P. D",
    "addr:postcode": "495001",
    "addr:state": "Chhattisgarh",
    "amenity": "hospital",
    "name": "Vinayak Netralaya",
    "source": "OpenGovernmentData"
  }
},
{
  "type": "node",
  "id": 6953068871,
  "lat": 22.0776355,
  "lon": 82.1579746,
  "tags": {
    "addr:district": "Bilaspur",
    "addr:full": "Bus Stand Road, Telepara",
    "addr:postcode": "495001",
    "addr:state": "Chhattisgarh",
    "amenity": "hospital",
    "contact:mobile": "9827156659",
    "name": "Shri Ram Hospital, Bilaspur",
    "source": "OpenGovernmentData"
  }
},
{
  "type": "node",
  "id": 6953068876,
  "lat": 22.0852783,
  "lon": 82.1301560,
  "tags": {
    "addr:district": "Bilaspur",
    "addr:full": "Ameri Road, Nehru Nagar",
    "addr:postcode": "495001",
    "addr:state": "Chhattisgarh",
    "amenity": "hospital",
    "name": "Shri Ram Care Hospital - Bilaspur",
    "source": "OpenGovernmentData"
  }
},
{
  "type": "node",
  "id": 6953068881,
  "lat": 22.0816172,
  "lon": 82.1578458,
  "tags": {
    "addr:district": "Bilaspur",
    "addr:full": "Medical Complex Road , Telepara",
    "addr:postcode": "495001",
    "addr:state": "Chhattisgarh",
    "amenity": "hospital",
    "name": "Shivangi Hospital",
    "source": "OpenGovernmentData"
  }
},
{
  "type": "node",
  "id": 6953081086,
  "lat": 22.0803115,
  "lon": 82.1406912,
  "tags": {
    "addr:district": "Bilaspur",
    "addr:full": "Subhash Complex, Near Jarahabhata Mandir Chowk",
    "addr:postcode": "495001",
    "addr:state": "Chhattisgarh",
    "amenity": "hospital",
    "name": "Shirsti Children Hospital",
    "source": "OpenGovernmentData"
  }
},
{
  "type": "node",
  "id": 6953081087,
  "lat": 22.0758807,
  "lon": 82.1344972,
  "tags": {
    "addr:district": "Bilaspur",
    "addr:full": "Omnagar Jarahabhata, Near Masjid",
    "addr:postcode": "495001",
    "addr:state": "Chhattisgarh",
    "amenity": "hospital",
    "name": "Sai Baba Heart and Kidney Center",
    "source": "OpenGovernmentData"
  }
},
{
  "type": "node",
  "id": 6953081097,
  "lat": 22.0878360,
  "lon": 82.1371939,
  "tags": {
    "addr:district": "Bilaspur",
    "addr:full": "Behind Sale Tax Office, Ware House Road",
    "addr:postcode": "495001",
    "addr:state": "Chhattisgarh",
    "amenity": "hospital",
    "name": "Onkar Chikitsalaya",
    "source": "OpenGovernmentData"
  }
},
{
  "type": "node",
  "id": 6953081102,
  "lat": 22.0881452,
  "lon": 82.1247594,
  "tags": {
    "addr:district": "Bilaspur",
    "addr:full": "Shanti Nagar (Narmada Nagar), Ameri Road",
    "addr:postcode": "495001",
    "addr:state": "Chhattisgarh",
    "amenity": "hospital",
    "name": "Nulife Heart Care Emergency Hospital",
    "source": "OpenGovernmentData"
  }
},
{
  "type": "node",
  "id": 6953081107,
  "lat": 22.0112457,
  "lon": 82.5803620,
  "tags": {
    "addr:district": "Bilaspur",
    "addr:full": "Ll Paliwal Memorial Hospital",
    "addr:postcode": "495668",
    "addr:state": "Chhattisgarh",
    "amenity": "hospital",
    "name": "Ll Paliwal Memorial Hospital",
    "source": "OpenGovernmentData"
  }
},
{
  "type": "node",
  "id": 6953081112,
  "lat": 22.0751201,
  "lon": 82.1605146,
  "tags": {
    "addr:district": "Bilaspur",
    "addr:full": "Near Bus Stand Road, Opposite Jeet Cinema",
    "addr:postcode": "495001",
    "addr:state": "Chhattisgarh",
    "amenity": "hospital",
    "name": "Ladikar Hospital",
    "source": "OpenGovernmentData"
  }
},
{
  "type": "node",
  "id": 6953081127,
  "lat": 22.0765493,
  "lon": 82.1538533,
  "tags": {
    "addr:district": "Bilaspur",
    "addr:full": "Opposite Telphone Exchange, Niranjan Place Bus Stand Road",
    "addr:postcode": "495001",
    "addr:state": "Chhattisgarh",
    "amenity": "hospital",
    "name": "Dr Sharma Hospital and Maternity Home",
    "source": "OpenGovernmentData"
  }
},
{
  "type": "node",
  "id": 6953081139,
  "lat": 22.0889265,
  "lon": 82.1493265,
  "tags": {
    "addr:district": "Bilaspur",
    "addr:full": "Pratap Chowk, Old Pratap Talkies, Near Arpa Bridge",
    "addr:postcode": "495001",
    "addr:state": "Chhattisgarh",
    "amenity": "hospital",
    "name": "Care N Cure Multspeciality Hospital",
    "source": "OpenGovernmentData"
  }
},
{
  "type": "node",
  "id": 6953081149,
  "lat": 19.0788755,
  "lon": 82.0164934,
  "tags": {
    "addr:district": "Bastar",
    "addr:full": "Near Bus Stand Road",
    "addr:postcode": "494001",
    "addr:state": "Chhattisgarh",
    "amenity": "hospital",
    "healthcare": "hospital",
    "name": "Bastar Seva Hospital",
    "source": "OpenGovernmentData"
  }
},
{
  "type": "node",
  "id": 6953081166,
  "lat": 22.0868640,
  "lon": 82.1481912,
  "tags": {
    "addr:district": "Bilaspur",
    "addr:full": "Brishpati Bazar,Tilak Nagar",
    "addr:postcode": "495001",
    "addr:state": "Chhattisgarh",
    "amenity": "hospital",
    "name": "Ashirwad Nursing Home",
    "source": "OpenGovernmentData"
  }
},
{
  "type": "node",
  "id": 6953081186,
  "lat": 22.0979110,
  "lon": 82.1304350,
  "tags": {
    "addr:district": "Bilaspur",
    "addr:full": "Mandir Chowk, Jarabhata",
    "addr:postcode": "495001",
    "addr:state": "Chhattisgarh",
    "amenity": "hospital",
    "name": "Bilaspur Hospital",
    "source": "OpenGovernmentData"
  }
},
{
  "type": "node",
  "id": 6953081191,
  "lat": 22.0855892,
  "lon": 82.1473104,
  "tags": {
    "addr:district": "Bilaspur",
    "addr:full": "Opposite Nagrik Sahakari Bank, Brihaspati Bazar",
    "addr:postcode": "495004",
    "addr:state": "Chhattisgarh",
    "amenity": "hospital",
    "name": "Budhia Hospital and Maternity Home",
    "source": "OpenGovernmentData"
  }
},
{
  "type": "node",
  "id": 6953245879,
  "lat": 21.2207349,
  "lon": 81.3805121,
  "tags": {
    "addr:district": "Durg",
    "addr:full": "Nandani Road Near Chhapani Chock",
    "addr:postcode": "490036",
    "addr:state": "Chhattisgarh",
    "amenity": "hospital",
    "name": "S.S. Hospital",
    "source": "OpenGovernmentData"
  }
},
{
  "type": "node",
  "id": 6953245884,
  "lat": 21.1864725,
  "lon": 81.2799159,
  "tags": {
    "addr:district": "Durg",
    "addr:full": "Opposite Govt Hospital G.E.Road",
    "addr:postcode": "491001",
    "addr:state": "Chhattisgarh",
    "amenity": "hospital",
    "name": "Priyanka Hospital",
    "source": "OpenGovernmentData"
  }
},
{
  "type": "node",
  "id": 6953267891,
  "lat": 21.1175651,
  "lon": 81.3868540,
  "tags": {
    "addr:district": "Durg",
    "addr:full": "Mahima Hospital, Village & Post Utai, Block Patan",
    "addr:postcode": "491107",
    "addr:state": "Chhattisgarh",
    "amenity": "hospital",
    "name": "Mahima Hospital Utai",
    "source": "OpenGovernmentData"
  }
},
{
  "type": "node",
  "id": 6953267896,
  "lat": 21.2082539,
  "lon": 81.3554683,
  "tags": {
    "addr:district": "Durg",
    "addr:full": "Infront Of Nagar Nigam",
    "addr:postcode": "490023",
    "addr:state": "Chhattisgarh",
    "amenity": "hospital",
    "name": "Lal Bahadur Shastri Civil Hospital",
    "name:etymology:wikidata": "Q244689",
    "source": "OpenGovernmentData"
  }
},
{
  "type": "node",
  "id": 6953267901,
  "lat": 21.2162229,
  "lon": 81.3232684,
  "tags": {
    "addr:district": "Durg",
    "addr:full": "Junwani Road, Smriti Nagar, Near Chaohan Towers",
    "addr:postcode": "490020",
    "addr:state": "Chhattisgarh",
    "amenity": "hospital",
    "name": "Apollo Bsr Hospital",
    "source": "OpenGovernmentData"
  }
},
{
  "type": "node",
  "id": 6953267902,
  "lat": 21.1172679,
  "lon": 81.3874116,
  "tags": {
    "addr:district": "Durg",
    "addr:full": "Asha Complex, Near Patan Pool",
    "addr:postcode": "491107",
    "addr:state": "Chhattisgarh",
    "amenity": "hospital",
    "name": "Aastha Hospital, Durg",
    "source": "OpenGovernmentData"
  }
},
{
  "type": "node",
  "id": 6953267917,
  "lat": 20.7076893,
  "lon": 81.5414648,
  "tags": {
    "addr:district": "Dhamtari",
    "addr:full": "Martin Banglow, Dak Banglow Ward",
    "addr:postcode": "493773",
    "addr:state": "Chhattisgarh",
    "amenity": "hospital",
    "name": "Martin Hospital",
    "source": "OpenGovernmentData"
  }
},
{
  "type": "node",
  "id": 6953369017,
  "lat": 23.1981055,
  "lon": 82.3545319,
  "tags": {
    "addr:district": "Korea",
    "addr:full": "Haldibari, Chirimiri",
    "addr:postcode": "497442",
    "addr:state": "Chhattisgarh",
    "amenity": "hospital",
    "name": "Hospital Tulsi-Amrit",
    "source": "OpenGovernmentData"
  }
},
{
  "type": "node",
  "id": 6953369027,
  "lat": 22.3538874,
  "lon": 82.7125950,
  "tags": {
    "addr:full": "Secl Main Hospital",
    "addr:postcode": "495677",
    "amenity": "hospital",
    "healthcare": "hospital",
    "name": "Secl Main Hospital",
    "name:ur": "ایس ای سی ایل مین ہسپتال",
    "source": "OpenGovernmentData"
  }
},
{
  "type": "node",
  "id": 6953369032,
  "lat": 22.3620919,
  "lon": 82.7098297,
  "tags": {
    "addr:district": "Korba",
    "addr:full": "Near Oriental Bank",
    "addr:postcode": "495678",
    "addr:state": "Chhattisgarh",
    "amenity": "hospital",
    "healthcare": "hospital",
    "name": "Sahu Hospital, Korba",
    "source": "OpenGovernmentData"
  }
},
{
  "type": "node",
  "id": 6953369037,
  "lat": 22.3606346,
  "lon": 82.7246743,
  "tags": {
    "addr:district": "Korba",
    "addr:full": "C-1, C-2, 17, Niharika, Near Vir Savarkar, Bhawan, Opposite Nagar Nigam Zonal Office",
    "addr:postcode": "495677",
    "addr:state": "Chhattisgarh",
    "amenity": "hospital",
    "healthcare": "hospital",
    "name": "Prasad Netralaya And Laser Center Korba",
    "source": "OpenGovernmentData"
  }
},
{
  "type": "node",
  "id": 6953369042,
  "lat": 22.3661400,
  "lon": 82.7160671,
  "tags": {
    "addr:district": "Korba",
    "addr:full": "Cseb Hospital East",
    "addr:postcode": "495450",
    "addr:state": "Chhattisgarh",
    "amenity": "hospital",
    "healthcare": "hospital",
    "name": "Cseb Hospital",
    "source": "OpenGovernmentData"
  }
},
{
  "type": "node",
  "id": 6953369051,
  "lat": 22.0021001,
  "lon": 81.2433983,
  "tags": {
    "addr:district": "Kabirdham",
    "addr:full": "Kawrdha",
    "addr:postcode": "491995",
    "addr:state": "Chhattisgarh",
    "amenity": "hospital",
    "name": "Radiance Hospital And Research Center",
    "source": "OpenGovernmentData"
  }
},
{
  "type": "node",
  "id": 6953369061,
  "lat": 22.0018135,
  "lon": 81.2432143,
  "tags": {
    "addr:district": "Kabirdham",
    "addr:full": "Bypass Road",
    "addr:postcode": "491995",
    "addr:state": "Chhattisgarh",
    "amenity": "hospital",
    "name": "Kabirdham Fracture Hospital and Trauma Center",
    "source": "OpenGovernmentData"
  }
},
{
  "type": "node",
  "id": 6953369081,
  "lat": 22.0367586,
  "lon": 82.6500043,
  "tags": {
    "addr:district": "Janjgir-Champa",
    "addr:full": "Janjgir-Champa",
    "addr:postcode": "495671",
    "addr:state": "Chhattisgarh",
    "amenity": "hospital",
    "name": "Oshodhara Hospital and Surgical Center",
    "source": "OpenGovernmentData"
  }
},
{
  "type": "node",
  "id": 6953387792,
  "lat": 22.0333255,
  "lon": 82.6558422,
  "tags": {
    "addr:district": "Janjgir-Champa",
    "addr:full": "Champa Christian Hospital",
    "addr:postcode": "495671",
    "addr:state": "Chhattisgarh",
    "amenity": "hospital",
    "name": "Champa Christian Hospital",
    "source": "OpenGovernmentData"
  }
},
{
  "type": "node",
  "id": 6953387797,
  "lat": 21.1893436,
  "lon": 81.2768917,
  "tags": {
    "addr:district": "Durg",
    "addr:full": "Near Marwari School, New Indira Market",
    "addr:postcode": "491001",
    "addr:state": "Chhattisgarh",
    "amenity": "hospital",
    "name": "Verma Hospital, Durg",
    "source": "OpenGovernmentData"
  }
},
{
  "type": "node",
  "id": 6953387802,
  "lat": 20.7323178,
  "lon": 81.2065984,
  "tags": {
    "addr:district": "Durg",
    "addr:full": "Chinar Complex,Mainroad,Sadar Bazar",
    "addr:postcode": "491226",
    "addr:state": "Chhattisgarh",
    "amenity": "hospital",
    "name": "Swasthya Sanchay",
    "source": "OpenGovernmentData"
  }
},
{
  "type": "node",
  "id": 6953387811,
  "lat": 21.2092540,
  "lon": 81.3731965,
  "tags": {
    "addr:district": "Durg",
    "addr:full": "Near Heavey Restorent , G E Road Power House",
    "addr:postcode": "491001",
    "addr:state": "Chhattisgarh",
    "amenity": "hospital",
    "healthcare": "hospital",
    "name": "Shree Ambe Hospital",
    "source": "OpenGovernmentData"
  }
},
{
  "type": "node",
  "id": 6953541281,
  "lat": 21.2346486,
  "lon": 81.6077931,
  "tags": {
    "addr:district": "Raipur",
    "addr:full": "Danganiya Near Shitla Mandir",
    "addr:postcode": "492001",
    "addr:state": "Chhattisgarh",
    "amenity": "hospital",
    "name": "Aashirwad Fertility and Endoscopy Center",
    "source": "OpenGovernmentData"
  }
},
{
  "type": "node",
  "id": 6953567791,
  "lat": 22.2996520,
  "lon": 83.0941956,
  "tags": {
    "addr:district": "Raigarh",
    "addr:full": "Hati Block Dharamjaigarh",
    "addr:postcode": "496116",
    "addr:state": "Chhattisgarh",
    "addr:subdistrict": "Udaipur (Dharamjaigarh)",
    "amenity": "hospital",
    "name": "Government Hospital HATI",
    "source": "OpenGovernmentData"
  }
},
{
  "type": "node",
  "id": 6953567817,
  "lat": 19.7126457,
  "lon": 81.2413095,
  "tags": {
    "addr:district": "Narayanpur",
    "addr:full": "Mission Hospital, Kumar Para",
    "addr:postcode": "494661",
    "addr:state": "Chhattisgarh",
    "amenity": "hospital",
    "name": "Assisi Shanti Bhavan",
    "source": "OpenGovernmentData"
  }
},
{
  "type": "node",
  "id": 6956375956,
  "lat": 22.0706677,
  "lon": 81.6874948,
  "tags": {
    "addr:district": "Mungeli",
    "addr:full": "Lormi Road",
    "addr:postcode": "495001",
    "addr:state": "Chhattisgarh",
    "amenity": "hospital",
    "name": "Christian Hospital",
    "source": "OpenGovernmentData"
  }
},
{
  "type": "node",
  "id": 6956375957,
  "lat": 22.0707864,
  "lon": 81.6944432,
  "tags": {
    "addr:district": "Mungeli",
    "addr:full": "Dau Para Chowk",
    "addr:postcode": "495334",
    "addr:state": "Chhattisgarh",
    "amenity": "hospital",
    "name": "Sukhnandan Hospital",
    "source": "OpenGovernmentData"
  }
},
{
  "type": "node",
  "id": 6956375962,
  "lat": 22.0090424,
  "lon": 81.2365269,
  "tags": {
    "addr:district": "Kabirdham",
    "addr:full": "Thakur Para",
    "addr:postcode": "491995",
    "addr:state": "Chhattisgarh",
    "amenity": "hospital",
    "name": "Goraj Children Hospital",
    "source": "OpenGovernmentData"
  }
},
{
  "type": "node",
  "id": 6956627645,
  "lat": 21.2650092,
  "lon": 81.6679336,
  "tags": {
    "addr:district": "Raipur",
    "addr:full": "Om Santi Niketan School Adarsh Nagar Mowa",
    "addr:postcode": "492001",
    "addr:state": "Chhattisgarh",
    "amenity": "hospital",
    "name": "Samarpan Hospital, Raipur",
    "source": "OpenGovernmentData"
  }
},
{
  "type": "node",
  "id": 6956627650,
  "lat": 21.2352073,
  "lon": 81.6418236,
  "tags": {
    "addr:district": "Raipur",
    "addr:full": "Behind Aashirwad Bhawan,Byron Bazar",
    "addr:postcode": "492001",
    "addr:state": "Chhattisgarh",
    "amenity": "hospital",
    "name": "Sai Sushrusha Hospital",
    "source": "OpenGovernmentData"
  }
},
{
  "type": "node",
  "id": 6956627655,
  "lat": 21.2499934,
  "lon": 81.6684566,
  "tags": {
    "addr:district": "Raipur",
    "addr:full": "Near Jagannath Mandir, Gayatri Nagar",
    "addr:postcode": "492002",
    "addr:state": "Chhattisgarh",
    "amenity": "hospital",
    "name": "Sai Kalayan Hospital And Icu",
    "source": "OpenGovernmentData"
  }
},
{
  "type": "node",
  "id": 6956627660,
  "lat": 21.2595225,
  "lon": 81.6370104,
  "tags": {
    "addr:district": "Raipur",
    "addr:full": "Near Choti Line, Fafadih",
    "addr:postcode": "492001",
    "addr:state": "Chhattisgarh",
    "amenity": "hospital",
    "name": "Sai Baba Eye Hospital",
    "source": "OpenGovernmentData"
  }
},
{
  "type": "node",
  "id": 6956627669,
  "lat": 21.2419875,
  "lon": 81.8368053,
  "tags": {
    "addr:district": "Raipur",
    "addr:full": "Bhansoj Road, N.H-6,M.M.Funcit",
    "addr:postcode": "492101",
    "addr:state": "Chhattisgarh",
    "amenity": "hospital",
    "name": "Raipur Institute Of Medical Sciences Hospital",
    "source": "OpenGovernmentData"
  }
},
{
  "type": "node",
  "id": 6956629791,
  "lat": 21.2647055,
  "lon": 81.6395652,
  "tags": {
    "addr:district": "Raipur",
    "addr:full": "Street No. 4, Sanmati Nagar, Near Jain Mandir, Fafadih",
    "addr:postcode": "492009",
    "addr:state": "Chhattisgarh",
    "amenity": "hospital",
    "name": "Prannath Mission Hospital",
    "source": "OpenGovernmentData"
  }
},
{
  "type": "node",
  "id": 6956629796,
  "lat": 21.2454024,
  "lon": 81.6468099,
  "tags": {
    "addr:district": "Raipur",
    "addr:full": "Raja Talab Road, Near Ghari Chowk",
    "addr:postcode": "492001",
    "addr:state": "Chhattisgarh",
    "amenity": "hospital",
    "name": "Piles Care Hospital",
    "source": "OpenGovernmentData"
  }
},
{
  "type": "node",
  "id": 6956629801,
  "lat": 21.2248204,
  "lon": 81.6595718,
  "tags": {
    "addr:district": "Raipur",
    "addr:full": "Opposite Vijayta Complex. Main Road, New Rajendra Nagar",
    "addr:postcode": "492001",
    "addr:state": "Chhattisgarh",
    "amenity": "hospital",
    "name": "Tharani Children Hospital And Dental Clinic",
    "source": "OpenGovernmentData"
  }
},
{
  "type": "node",
  "id": 6956629810,
  "lat": 21.2439374,
  "lon": 81.6145067,
  "tags": {
    "addr:district": "Raipur",
    "addr:full": "7, South Avenue, Choubey Colony",
    "addr:postcode": "492001",
    "addr:state": "Chhattisgarh",
    "amenity": "hospital",
    "name": "Dr. M.R. Bhagwat Memorial Hospital",
    "source": "OpenGovernmentData"
  }
},
{
  "type": "node",
  "id": 6956629815,
  "lat": 21.2166146,
  "lon": 81.6572553,
  "tags": {
    "addr:district": "Raipur",
    "addr:full": "G.E. Road,Choubey Colony",
    "addr:postcode": "492001",
    "addr:state": "Chhattisgarh",
    "amenity": "hospital",
    "name": "Kalda Plastic and Cosmetic Surgery Institute and Burn Centre",
    "source": "OpenGovernmentData"
  }
},
{
  "type": "node",
  "id": 6956629820,
  "lat": 22.3637079,
  "lon": 82.7354260,
  "tags": {
    "addr:district": "Korba",
    "addr:full": "Nehru Marg",
    "addr:postcode": "495677",
    "addr:state": "Chhattisgarh",
    "amenity": "hospital",
    "healthcare": "hospital",
    "name": "Shweta Nursing Home",
    "source": "OpenGovernmentData"
  }
},
{
  "type": "node",
  "id": 6956629825,
  "lat": 22.3626279,
  "lon": 82.7362717,
  "tags": {
    "addr:district": "Korba",
    "addr:full": "Mangalam Vihar Kosabadi",
    "addr:postcode": "495677",
    "addr:state": "Chhattisgarh",
    "amenity": "hospital",
    "healthcare": "hospital",
    "name": "Krishna Hospital, Korba",
    "source": "OpenGovernmentData"
  }
},
{
  "type": "node",
  "id": 6956629830,
  "lat": 22.3630366,
  "lon": 82.7500468,
  "tags": {
    "addr:district": "Korba",
    "addr:full": "Korba",
    "addr:postcode": "495678",
    "addr:state": "Chhattisgarh",
    "amenity": "hospital",
    "healthcare": "hospital",
    "name": "Indra Gandhi District Hospital",
    "name:etymology:wikidata": "Q1149",
    "source": "OpenGovernmentData"
  }
},
{
  "type": "node",
  "id": 6956629835,
  "lat": 22.3622929,
  "lon": 82.7100321,
  "tags": {
    "addr:postcode": "495677",
    "amenity": "hospital",
    "healthcare": "hospital",
    "name": "D K Hospital",
    "name:ur": "ڈی کے ہسپتال"
  }
},
{
  "type": "node",
  "id": 6956629840,
  "lat": 22.4165784,
  "lon": 82.6581713,
  "tags": {
    "addr:district": "Korba",
    "addr:full": "Jamnipali",
    "addr:postcode": "495677",
    "addr:state": "Chhattisgarh",
    "amenity": "hospital",
    "name": "Ntpc Hospital",
    "source": "OpenGovernmentData"
  }
},
{
  "type": "node",
  "id": 6956629911,
  "lat": 22.3663989,
  "lon": 82.7514161,
  "tags": {
    "addr:district": "Korba",
    "addr:full": "Rajgamar Road,Near Jail, Risdi",
    "addr:postcode": "495683",
    "addr:state": "Chhattisgarh",
    "amenity": "hospital",
    "healthcare": "hospital",
    "name": "Shristi Institute Of Medical Science Hospital And Research Center",
    "source": "OpenGovernmentData"
  }
},
{
  "type": "node",
  "id": 6956629925,
  "lat": 22.0807299,
  "lon": 82.1545695,
  "tags": {
    "addr:district": "Bilaspur",
    "addr:full": "Sarju Bagacha, Telipara",
    "addr:postcode": "495001",
    "addr:state": "Chhattisgarh",
    "amenity": "hospital",
    "name": "Shri Sai Krupa Hospital",
    "source": "OpenGovernmentData"
  }
},
{
  "type": "node",
  "id": 6956629935,
  "lat": 22.0975946,
  "lon": 82.1629147,
  "tags": {
    "addr:district": "Bilaspur",
    "addr:full": "Near Cims Juni Lane",
    "addr:postcode": "495001",
    "addr:state": "Chhattisgarh",
    "amenity": "hospital",
    "name": "Shri Childrens Hospital",
    "source": "OpenGovernmentData"
  }
},
{
  "type": "node",
  "id": 6956629940,
  "lat": 22.0916060,
  "lon": 82.1279432,
  "tags": {
    "addr:district": "Mungeli",
    "addr:full": "Near Narmada Nagar Chowk",
    "addr:postcode": "495001",
    "addr:state": "Chhattisgarh",
    "amenity": "hospital",
    "name": "Sukham Arogyalya",
    "source": "OpenGovernmentData"
  }
},
{
  "type": "node",
  "id": 6956629955,
  "lat": 22.0845538,
  "lon": 82.1533558,
  "tags": {
    "addr:district": "Bilaspur",
    "addr:full": "Juniline",
    "addr:postcode": "495001",
    "addr:state": "Chhattisgarh",
    "amenity": "hospital",
    "name": "Mittal Hospital, Bilaspur",
    "source": "OpenGovernmentData"
  }
},
{
  "type": "node",
  "id": 6956629960,
  "lat": 22.0812345,
  "lon": 82.1514098,
  "tags": {
    "addr:district": "Bilaspur",
    "addr:full": "Azad Nagar",
    "addr:postcode": "495001",
    "addr:state": "Chhattisgarh",
    "amenity": "hospital",
    "name": "Mehta Children Nursing Home",
    "source": "OpenGovernmentData"
  }
},
{
  "type": "node",
  "id": 6956629970,
  "lat": 22.1944716,
  "lon": 82.0302783,
  "tags": {
    "addr:district": "Bilaspur",
    "addr:full": "Vill+P O - Ganiyari",
    "addr:postcode": "495001",
    "addr:state": "Chhattisgarh",
    "alt_name": "Jan Swasthya Sahyog",
    "amenity": "hospital",
    "name": "Jan Swasthaya Sahyog",
    "source": "OpenGovernmentData",
    "website": "https://www.jssbilaspur.org/"
  }
},
{
  "type": "node",
  "id": 6956629975,
  "lat": 22.8824236,
  "lon": 84.1370586,
  "tags": {
    "addr:district": "Jashpur",
    "addr:full": "District Hospital Jaspur Nagar",
    "addr:postcode": "496331",
    "addr:state": "Chhattisgarh",
    "amenity": "hospital",
    "name": "District Hospital, Jaspur Nagar",
    "source": "OpenGovernmentData"
  }
},
{
  "type": "node",
  "id": 6956629976,
  "lat": 21.2491409,
  "lon": 81.6617082,
  "tags": {
    "addr:district": "Raipur",
    "addr:full": "Shankar Nagar Main Road",
    "addr:postcode": "492007",
    "addr:state": "Chhattisgarh",
    "amenity": "hospital",
    "name": "Vidya Hospital And Kidney Centre",
    "source": "OpenGovernmentData"
  }
},
{
  "type": "node",
  "id": 6956655133,
  "lat": 21.2145777,
  "lon": 81.6542597,
  "tags": {
    "addr:district": "Raipur",
    "addr:full": "Pachmedi Naka, Dhamtari Road",
    "addr:postcode": "492001",
    "addr:state": "Chhattisgarh",
    "amenity": "hospital",
    "name": "Shri Aurobindo Medical Research Centre",
    "source": "OpenGovernmentData"
  }
},
{
  "type": "node",
  "id": 6956655140,
  "lat": 21.2398899,
  "lon": 81.6698393,
  "tags": {
    "addr:district": "Raipur",
    "addr:full": "Infront Of Dwarika Mandir New Tilak Society, Avanti Vihar, Telibandha Road",
    "addr:postcode": "492001",
    "addr:state": "Chhattisgarh",
    "amenity": "hospital",
    "name": "Shree Sai Care Hospital",
    "source": "OpenGovernmentData"
  }
},
{
  "type": "node",
  "id": 6956655145,
  "lat": 21.2200322,
  "lon": 81.6655757,
  "tags": {
    "addr:district": "Raipur",
    "addr:full": "New Rajendra Nagar Amlidih Near Drowanacharya School",
    "addr:postcode": "492015",
    "addr:state": "Chhattisgarh",
    "amenity": "hospital",
    "name": "Shree Medishine Hospital - Raipur",
    "source": "OpenGovernmentData"
  }
},
{
  "type": "node",
  "id": 6956655152,
  "lat": 21.2715555,
  "lon": 81.6710436,
  "tags": {
    "addr:district": "Raipur",
    "addr:full": "Dubey Colony, Mowa, Near Mowa Police Station",
    "addr:postcode": "492007",
    "addr:state": "Chhattisgarh",
    "amenity": "hospital",
    "contact:phone": "7714066074",
    "name": "Sarvodaya Hospital and Maternity Center",
    "source": "OpenGovernmentData"
  }
},
{
  "type": "node",
  "id": 6957120013,
  "lat": 21.2002044,
  "lon": 81.3225931,
  "tags": {
    "addr:district": "Durg",
    "addr:full": "Nehru Nagar, G E Road, Bhilai",
    "addr:postcode": "490023",
    "addr:state": "Chhattisgarh",
    "amenity": "hospital",
    "name": "Chandulal Chandrakar Hospital",
    "operator:type": "private",
    "source": "OpenGovernmentData"
  }
},
{
  "type": "node",
  "id": 6957120019,
  "lat": 23.1318834,
  "lon": 83.1897393,
  "tags": {
    "addr:district": "Surguja",
    "addr:full": "Surguja",
    "addr:postcode": "497001",
    "addr:state": "Chhattisgarh",
    "amenity": "hospital",
    "name": "Kamlesh Netralaya and Kurana Dant Chikitsalay",
    "source": "OpenGovernmentData"
  }
},
{
  "type": "node",
  "id": 6957120024,
  "lat": 21.0937493,
  "lon": 81.0375727,
  "tags": {
    "addr:district": "Rajnandgaon",
    "addr:full": "Kamal Talkies Road, Bharkapara",
    "addr:postcode": "491441",
    "addr:state": "Chhattisgarh",
    "amenity": "hospital",
    "name": "Vishal Eye Care",
    "source": "OpenGovernmentData"
  }
},
{
  "type": "node",
  "id": 6957120029,
  "lat": 21.2391162,
  "lon": 81.6413422,
  "tags": {
    "addr:district": "Raipur",
    "addr:full": "Opposite Subhash Stadium",
    "addr:postcode": "492001",
    "addr:state": "Chhattisgarh",
    "amenity": "hospital",
    "name": "Visharad Hospital",
    "source": "OpenGovernmentData"
  }
},
{
  "type": "node",
  "id": 6957120034,
  "lat": 21.2582818,
  "lon": 81.6553302,
  "tags": {
    "addr:district": "Raipur",
    "addr:full": "Behind Cg Elite Building, Ashoka Gali, Pandari",
    "addr:postcode": "492001",
    "addr:state": "Chhattisgarh",
    "amenity": "hospital",
    "name": "Urmila Memorial Multispeciality Hospital",
    "source": "OpenGovernmentData"
  }
},
{
  "type": "node",
  "id": 6957120039,
  "lat": 21.2625908,
  "lon": 81.5873668,
  "tags": {
    "addr:district": "Raipur",
    "addr:full": "Arjun Vihar Heerapur Road, Opp: Harshit Tower",
    "addr:postcode": "492001",
    "addr:state": "Chhattisgarh",
    "amenity": "hospital",
    "name": "Upadhyay Hospital, Raipur",
    "source": "OpenGovernmentData"
  }
},
{
  "type": "node",
  "id": 6957120057,
  "lat": 21.2599874,
  "lon": 81.6282919,
  "tags": {
    "addr:district": "Raipur",
    "addr:full": "Near Shukrari Bazar, Gudhiyari",
    "addr:postcode": "492001",
    "addr:state": "Chhattisgarh",
    "amenity": "hospital",
    "name": "Subham Hospital and Maternity Home",
    "source": "OpenGovernmentData"
  }
},
{
  "type": "node",
  "id": 6957120062,
  "lat": 21.2570692,
  "lon": 81.6373428,
  "tags": {
    "addr:district": "Raipur",
    "addr:full": "Near Hotel Celebration, Bastar Bada, Bastar Bada Jail Road",
    "addr:postcode": "492009",
    "addr:state": "Chhattisgarh",
    "amenity": "hospital",
    "name": "Subba Rao Hospital",
    "source": "OpenGovernmentData"
  }
},
{
  "type": "node",
  "id": 6957120067,
  "lat": 21.2308046,
  "lon": 81.5954804,
  "tags": {
    "addr:district": "Raipur",
    "addr:full": "Madhav Rao Sapre Ward, a",
    "addr:postcode": "492001",
    "addr:state": "Chhattisgarh",
    "amenity": "hospital",
    "name": "Srimaa Sarada Arogyadham",
    "source": "OpenGovernmentData"
  }
},
{
  "type": "node",
  "id": 6957120072,
  "lat": 20.9683134,
  "lon": 81.8837748,
  "tags": {
    "addr:district": "Raipur",
    "addr:full": "Ashirwad Bhawan Pitaiband Road, Rajim",
    "addr:postcode": "492001",
    "addr:state": "Chhattisgarh",
    "amenity": "hospital",
    "name": "Soni and Kaur Multispeciality Hospital And Maternity Home",
    "source": "OpenGovernmentData"
  }
},
{
  "type": "node",
  "id": 6957120077,
  "lat": 21.2740474,
  "lon": 81.6335745,
  "tags": {
    "addr:district": "Raipur",
    "addr:full": "Sivanand Nagar Sector-1 Near Hawa Ghar",
    "addr:postcode": "492001",
    "addr:state": "Chhattisgarh",
    "amenity": "hospital",
    "name": "Sobhagya Hospital",
    "source": "OpenGovernmentData"
  }
},
{
  "type": "node",
  "id": 6957120082,
  "lat": 21.2361049,
  "lon": 81.6117065,
  "tags": {
    "addr:district": "Raipur",
    "addr:full": "Daganiya Road, Sundar Nagar Road",
    "addr:postcode": "492001",
    "addr:state": "Chhattisgarh",
    "amenity": "hospital",
    "name": "Shri Ram Hospital, Raipur",
    "source": "OpenGovernmentData"
  }
},
{
  "type": "node",
  "id": 6957133287,
  "lat": 21.2724251,
  "lon": 81.6717492,
  "tags": {
    "addr:district": "Raipur",
    "addr:full": "Ekta Chow Duby Colony, Near Moina Police Station",
    "addr:postcode": "492010",
    "addr:state": "Chhattisgarh",
    "amenity": "hospital",
    "name": "Shri Balaji Institute Of Medical Science Pvt Ltd",
    "source": "OpenGovernmentData"
  }
},
{
  "type": "node",
  "id": 6957503647,
  "lat": 21.2646330,
  "lon": 81.6358182,
  "tags": {
    "addr:district": "Raipur",
    "addr:full": "Nand Kumar Pathak Fafadih Naka",
    "addr:postcode": "492001",
    "addr:state": "Chhattisgarh",
    "amenity": "hospital",
    "name": "Pathak Hospital, Raipur",
    "source": "OpenGovernmentData"
  }
},
{
  "type": "node",
  "id": 6957503652,
  "lat": 21.2259317,
  "lon": 81.6585526,
  "tags": {
    "addr:district": "Raipur",
    "addr:full": "New Rajendra Nagar",
    "addr:postcode": "492001",
    "addr:state": "Chhattisgarh",
    "amenity": "hospital",
    "name": "Gbg Kidney Care Hospital",
    "source": "OpenGovernmentData"
  }
},
{
  "type": "node",
  "id": 6957503657,
  "lat": 21.1995218,
  "lon": 81.3570089,
  "tags": {
    "addr:district": "Durg",
    "addr:full": "Sector 2 A Market",
    "addr:postcode": "490001",
    "addr:state": "Chhattisgarh",
    "amenity": "hospital",
    "name": "Parvati Hospital",
    "source": "OpenGovernmentData"
  }
},
{
  "type": "node",
  "id": 6957503662,
  "lat": 21.1611586,
  "lon": 81.3350889,
  "tags": {
    "addr:district": "Durg",
    "addr:full": "Phase-6, Maitri Nagar, Krishna Talkies Road, Risali",
    "addr:postcode": "491001",
    "addr:state": "Chhattisgarh",
    "amenity": "hospital",
    "name": "Shri Vinayak Hospital",
    "source": "OpenGovernmentData"
  }
},
{
  "type": "node",
  "id": 6957503672,
  "lat": 21.2043330,
  "lon": 81.3416523,
  "tags": {
    "addr:district": "Durg",
    "addr:full": "Near Supela Thana , Priyodarshni Pariror G.E.Road",
    "addr:postcode": "491001",
    "addr:state": "Chhattisgarh",
    "amenity": "hospital",
    "name": "Bhilai Gayatri Hospital",
    "source": "OpenGovernmentData"
  }
},
{
  "type": "node",
  "id": 6957503681,
  "lat": 21.2013325,
  "lon": 81.3214741,
  "tags": {
    "addr:district": "Durg",
    "addr:full": "Nehru Nagar",
    "addr:postcode": "490009",
    "addr:state": "Chhattisgarh",
    "amenity": "hospital",
    "name": "Suraj Hospital, Durg",
    "source": "OpenGovernmentData"
  }
},
{
  "type": "node",
  "id": 6965495354,
  "lat": 21.2462123,
  "lon": 81.6186909,
  "tags": {
    "addr:district": "Raipur",
    "addr:full": "Samta Colony, Main Road",
    "addr:postcode": "492001",
    "addr:state": "Chhattisgarh",
    "amenity": "hospital",
    "name": "Modi Hospital",
    "source": "OpenGovernmentData"
  }
},
{
  "type": "node",
  "id": 6965495359,
  "lat": 21.2461698,
  "lon": 81.6239078,
  "tags": {
    "addr:district": "Raipur",
    "addr:full": "B-4 Samta Colony Main Road",
    "addr:postcode": "492001",
    "addr:state": "Chhattisgarh",
    "amenity": "hospital",
    "name": "Jagjivan Urology Centre",
    "source": "OpenGovernmentData"
  }
},
{
  "type": "node",
  "id": 6965495374,
  "lat": 21.2230452,
  "lon": 81.6566160,
  "tags": {
    "addr:district": "Raipur",
    "addr:full": "Tagore Nagar Square",
    "addr:postcode": "492001",
    "addr:state": "Chhattisgarh",
    "amenity": "hospital",
    "name": "Sahai Hospital",
    "source": "OpenGovernmentData"
  }
},
{
  "type": "node",
  "id": 6965495384,
  "lat": 21.2443828,
  "lon": 81.6601836,
  "tags": {
    "addr:district": "Raipur",
    "addr:full": "13, Anand Nagar",
    "addr:postcode": "492001",
    "addr:state": "Chhattisgarh",
    "amenity": "hospital",
    "name": "Pragya Hospital, Raipur",
    "source": "OpenGovernmentData"
  }
},
{
  "type": "node",
  "id": 6965497689,
  "lat": 21.2789978,
  "lon": 81.6376406,
  "tags": {
    "addr:district": "Raipur",
    "addr:full": "Near Khamtarai Bazar",
    "addr:postcode": "492001",
    "addr:state": "Chhattisgarh",
    "amenity": "hospital",
    "name": "P D Jethani Memorial Hospital and Diagnostic Center",
    "source": "OpenGovernmentData"
  }
},
{
  "type": "node",
  "id": 6965497699,
  "lat": 21.2472973,
  "lon": 81.6568963,
  "tags": {
    "addr:district": "Raipur",
    "addr:full": "Shanti Nagar",
    "addr:postcode": "492001",
    "addr:state": "Chhattisgarh",
    "amenity": "hospital",
    "name": "Nigam Ent Hospital",
    "source": "OpenGovernmentData"
  }
},
{
  "type": "node",
  "id": 6965497709,
  "lat": 21.2458836,
  "lon": 81.6474972,
  "tags": {
    "addr:district": "Raipur",
    "addr:full": "Rajatalab Road",
    "addr:postcode": "492001",
    "addr:state": "Chhattisgarh",
    "amenity": "hospital",
    "name": "Ganpati Hospital (Banthia Hospital)",
    "source": "OpenGovernmentData"
  }
},
{
  "type": "node",
  "id": 6965497714,
  "lat": 21.2399062,
  "lon": 81.6275100,
  "tags": {
    "addr:district": "Raipur",
    "addr:full": "Tatyapara",
    "addr:postcode": "492001",
    "addr:state": "Chhattisgarh",
    "amenity": "hospital",
    "healthcare": "hospital",
    "name": "Yashwant Hospital, Raipur",
    "source": "OpenGovernmentData"
  }
},
{
  "type": "node",
  "id": 6965497719,
  "lat": 21.2495084,
  "lon": 81.6579813,
  "tags": {
    "addr:district": "Raipur",
    "addr:full": "New Shanti Nagar",
    "addr:postcode": "492001",
    "addr:state": "Chhattisgarh",
    "amenity": "hospital",
    "name": "Tripathi Hospital, Raipur",
    "source": "OpenGovernmentData"
  }
},
{
  "type": "node",
  "id": 6965497724,
  "lat": 21.2496099,
  "lon": 81.6580936,
  "tags": {
    "addr:district": "Raipur",
    "addr:full": "New Shanti Nagar",
    "addr:postcode": "492001",
    "addr:state": "Chhattisgarh",
    "amenity": "hospital",
    "name": "Jeewan Memorial Hospital For Plastic Surgery and Uro",
    "source": "OpenGovernmentData"
  }
},
{
  "type": "node",
  "id": 6965497729,
  "lat": 21.2487035,
  "lon": 81.6448975,
  "tags": {
    "addr:district": "Raipur",
    "addr:full": "Main Road Pandri",
    "addr:postcode": "492001",
    "addr:state": "Chhattisgarh",
    "amenity": "hospital",
    "name": "Om Netra Kendra",
    "source": "OpenGovernmentData"
  }
},
{
  "type": "node",
  "id": 6965497734,
  "lat": 21.2567003,
  "lon": 81.6410096,
  "tags": {
    "addr:district": "Raipur",
    "addr:full": "Sai Nagar Devendra Nagar Road",
    "addr:postcode": "492001",
    "addr:state": "Chhattisgarh",
    "amenity": "hospital",
    "name": "Roopjeevan Hospital",
    "source": "OpenGovernmentData"
  }
},
{
  "type": "node",
  "id": 6965497739,
  "lat": 21.2572460,
  "lon": 81.6435068,
  "tags": {
    "addr:district": "Raipur",
    "addr:full": "Devendra Nagar",
    "addr:postcode": "492001",
    "addr:state": "Chhattisgarh",
    "amenity": "hospital",
    "name": "Jubesta Hospital",
    "source": "OpenGovernmentData"
  }
},
{
  "type": "node",
  "id": 6965497744,
  "lat": 21.2559026,
  "lon": 81.6448666,
  "tags": {
    "addr:district": "Raipur",
    "addr:full": "B 162, Sector-1, Devendra Nagar",
    "addr:postcode": "492001",
    "addr:state": "Chhattisgarh",
    "amenity": "hospital",
    "name": "Jain Hospital, Raipur",
    "source": "OpenGovernmentData"
  }
},
{
  "type": "node",
  "id": 6965497749,
  "lat": 21.2573909,
  "lon": 81.6466855,
  "tags": {
    "addr:district": "Raipur",
    "addr:full": "Sector-1, B/15, Devendra Nagar",
    "addr:postcode": "492001",
    "addr:state": "Chhattisgarh",
    "amenity": "hospital",
    "name": "Dr. Rajehwari Kulkarni Surgical Hospital And Dia",
    "source": "OpenGovernmentData"
  }
},
{
  "type": "node",
  "id": 6965497754,
  "lat": 21.2093754,
  "lon": 81.3720323,
  "tags": {
    "addr:district": "Durg",
    "addr:full": "G E Road Power House",
    "addr:postcode": "490023",
    "addr:state": "Chhattisgarh",
    "amenity": "hospital",
    "healthcare": "hospital",
    "name": "Pragya Hospital, Durg",
    "source": "OpenGovernmentData"
  }
},
{
  "type": "node",
  "id": 6965497759,
  "lat": 21.2471211,
  "lon": 81.6566214,
  "tags": {
    "addr:district": "Raipur",
    "addr:full": "Raipur",
    "addr:postcode": "492001",
    "addr:state": "Chhattisgarh",
    "amenity": "hospital",
    "name": "Ekta Institute Of Child Health",
    "source": "OpenGovernmentData"
  }
},
{
  "type": "node",
  "id": 6965826469,
  "lat": 21.1306021,
  "lon": 81.2611278,
  "tags": {
    "addr:district": "Durg",
    "addr:full": "Chandkhuri",
    "addr:postcode": "491001",
    "addr:state": "Chhattisgarh",
    "amenity": "hospital",
    "name": "Rajiv Lochan Hospital",
    "source": "OpenGovernmentData"
  }
},
{
  "type": "node",
  "id": 6965834096,
  "lat": 21.0964902,
  "lon": 81.0400478,
  "tags": {
    "addr:district": "Rajnandgaon",
    "addr:full": "Old Bus Stand Road",
    "addr:postcode": "491441",
    "addr:state": "Chhattisgarh",
    "amenity": "hospital",
    "name": "United Hospital, Rajnandgaon",
    "source": "OpenGovernmentData"
  }
},
{
  "type": "node",
  "id": 6965834101,
  "lat": 23.1346426,
  "lon": 83.1905151,
  "tags": {
    "addr:district": "Surguja",
    "addr:full": "Ring Road, Missionchowk",
    "addr:postcode": "497001",
    "addr:state": "Chhattisgarh",
    "amenity": "hospital",
    "name": "Arihant Hospital",
    "source": "OpenGovernmentData"
  }
},
{
  "type": "node",
  "id": 6965834106,
  "lat": 20.5914222,
  "lon": 81.0740957,
  "tags": {
    "addr:district": "Durg",
    "addr:full": "Main Road, Dalli Rajahara",
    "addr:postcode": "491001",
    "addr:state": "Chhattisgarh",
    "amenity": "hospital",
    "name": "Pushpa Hospital, Durg",
    "source": "OpenGovernmentData"
  }
},
{
  "type": "node",
  "id": 6965834111,
  "lat": 20.5945789,
  "lon": 81.0722882,
  "tags": {
    "addr:district": "Durg",
    "addr:full": "Main Road Dalli Rajhara",
    "addr:postcode": "491001",
    "addr:state": "Chhattisgarh",
    "amenity": "hospital",
    "name": "Sanjivani Hospital, Durg",
    "source": "OpenGovernmentData"
  }
},
{
  "type": "node",
  "id": 6965834116,
  "lat": 21.2623121,
  "lon": 81.6739498,
  "tags": {
    "addr:district": "Raipur",
    "addr:full": "C-9 Ashoka Ratan, Vidhan Sabha Road Shankar Nagar",
    "addr:postcode": "492001",
    "addr:state": "Chhattisgarh",
    "amenity": "hospital",
    "name": "Ayush Hospital and Maternity Home",
    "source": "OpenGovernmentData"
  }
},
{
  "type": "node",
  "id": 6965834121,
  "lat": 21.2345823,
  "lon": 81.6097793,
  "tags": {
    "addr:district": "Raipur",
    "addr:full": "Opp:Sunder Nagar Gate Mahender Ghat Road",
    "addr:postcode": "492001",
    "addr:state": "Chhattisgarh",
    "amenity": "hospital",
    "name": "Ayushman Hospital and Diagnostic Institute",
    "source": "OpenGovernmentData"
  }
},
{
  "type": "node",
  "id": 6965834122,
  "lat": 21.2293683,
  "lon": 81.6000053,
  "tags": {
    "addr:district": "Raipur",
    "addr:full": "Mahadev Ghat Road, Ring Road Chowk",
    "addr:postcode": "492013",
    "addr:state": "Chhattisgarh",
    "amenity": "hospital",
    "name": "Bachpan Hospital",
    "source": "OpenGovernmentData"
  }
},
{
  "type": "node",
  "id": 6965834136,
  "lat": 21.2423490,
  "lon": 81.6395467,
  "tags": {
    "addr:district": "Raipur",
    "addr:full": "Near Mahila Thana, Aashirwad Bhawan",
    "addr:postcode": "492001",
    "addr:state": "Chhattisgarh",
    "amenity": "hospital",
    "name": "Bhattar Hospital",
    "source": "OpenGovernmentData"
  }
},
{
  "type": "node",
  "id": 6965834146,
  "lat": 21.2465523,
  "lon": 81.6100636,
  "tags": {
    "addr:district": "Raipur",
    "addr:full": "Geeta Nagar, Choubey Colony",
    "addr:postcode": "492001",
    "addr:state": "Chhattisgarh",
    "amenity": "hospital",
    "name": "City Hospital And Research Centre",
    "source": "OpenGovernmentData"
  }
},
{
  "type": "node",
  "id": 6965834156,
  "lat": 21.2510058,
  "lon": 81.6685317,
  "tags": {
    "addr:district": "Raipur",
    "addr:full": "Kuehna Road, Infront Of Cseb Sub Station Shankar Nagar",
    "addr:postcode": "492007",
    "addr:state": "Chhattisgarh",
    "amenity": "hospital",
    "name": "Devkripa Hospital and Doctor Plaza",
    "source": "OpenGovernmentData"
  }
},
{
  "type": "node",
  "id": 6965834161,
  "lat": 21.2471581,
  "lon": 81.6123417,
  "tags": {
    "addr:district": "Raipur",
    "addr:full": "Purani Basti Thana Chowk, Kankalipara Road",
    "addr:postcode": "492001",
    "addr:state": "Chhattisgarh",
    "amenity": "hospital",
    "name": "Dr. Jaulkar Ent Hospital",
    "source": "OpenGovernmentData"
  }
},
{
  "type": "node",
  "id": 6965834166,
  "lat": 21.2491114,
  "lon": 81.6453123,
  "tags": {
    "addr:district": "Raipur",
    "addr:full": "B-20, Ravi Nagar, Near Bus Stand, Pandri",
    "addr:postcode": "492001",
    "addr:state": "Chhattisgarh",
    "amenity": "hospital",
    "name": "Dr. Sandeep Bhagwat Orthopedic Hospital",
    "source": "OpenGovernmentData"
  }
},
{
  "type": "node",
  "id": 6965834176,
  "lat": 21.2495993,
  "lon": 81.6461378,
  "tags": {
    "addr:district": "Raipur",
    "addr:full": "Near New Bus Stand, Beside Rajgharana",
    "addr:postcode": "492001",
    "addr:state": "Chhattisgarh",
    "amenity": "hospital",
    "name": "Eye and Ent Hospital",
    "source": "OpenGovernmentData"
  }
},
{
  "type": "node",
  "id": 6965834177,
  "lat": 21.2604399,
  "lon": 81.6429824,
  "tags": {
    "addr:district": "Raipur",
    "addr:full": "Sec-2, Devendra Nagar",
    "addr:postcode": "492001",
    "addr:state": "Chhattisgarh",
    "amenity": "hospital",
    "name": "Heritage Hospital, Raipur",
    "source": "OpenGovernmentData"
  }
},
{
  "type": "node",
  "id": 6965834182,
  "lat": 21.5563958,
  "lon": 81.8090755,
  "tags": {
    "addr:district": "Raipur",
    "addr:full": "Setpal Nagar, Tilda Neora Post",
    "addr:postcode": "493114",
    "addr:state": "Chhattisgarh",
    "amenity": "hospital",
    "healthcare": "hospital",
    "name": "Jyoti Hospital and Prasuti Griha",
    "source": "OpenGovernmentData"
  }
},
{
  "type": "node",
  "id": 6965836187,
  "lat": 21.2342586,
  "lon": 81.6454580,
  "tags": {
    "addr:district": "Raipur",
    "addr:full": "Fawara Chowk, Byron Bazar",
    "addr:postcode": "492001",
    "addr:state": "Chhattisgarh",
    "amenity": "hospital",
    "name": "K G N Surical and Maternity Centre",
    "source": "OpenGovernmentData"
  }
},
{
  "type": "node",
  "id": 6965836192,
  "lat": 21.2438524,
  "lon": 81.6384199,
  "tags": {
    "addr:district": "Raipur",
    "addr:full": "Behind Indian Coffee House, Banstal",
    "addr:postcode": "492001",
    "addr:state": "Chhattisgarh",
    "amenity": "hospital",
    "name": "K.M. Hospital",
    "source": "OpenGovernmentData"
  }
},
{
  "type": "node",
  "id": 6965836197,
  "lat": 21.2605318,
  "lon": 81.6367264,
  "tags": {
    "addr:district": "Raipur",
    "addr:full": "Jailaxmi Complex, Main Road",
    "addr:postcode": "492001",
    "addr:state": "Chhattisgarh",
    "amenity": "hospital",
    "name": "M. M. Hospital",
    "source": "OpenGovernmentData"
  }
},
{
  "type": "node",
  "id": 6965836202,
  "lat": 21.2294448,
  "lon": 81.5978270,
  "tags": {
    "addr:district": "Raipur",
    "addr:full": "Opposite Lpg Petrol Pump, Mahadev Ghat Road",
    "addr:postcode": "492001",
    "addr:state": "Chhattisgarh",
    "amenity": "hospital",
    "name": "Mahadev Hospital",
    "source": "OpenGovernmentData"
  }
},
{
  "type": "node",
  "id": 6965836211,
  "lat": 21.2615844,
  "lon": 81.6380407,
  "tags": {
    "addr:district": "Raipur",
    "addr:full": "Road Next To Sbi, Near Patidar Bhavan, Fafdih",
    "addr:postcode": "492001",
    "addr:state": "Chhattisgarh",
    "amenity": "hospital",
    "name": "Mishra Speciality Hospital",
    "source": "OpenGovernmentData"
  }
},
{
  "type": "node",
  "id": 6965836216,
  "lat": 21.2686163,
  "lon": 81.6197897,
  "tags": {
    "addr:district": "Raipur",
    "addr:full": "Gondwara Road Near Chirkuti Mandir",
    "addr:postcode": "492001",
    "addr:state": "Chhattisgarh",
    "amenity": "hospital",
    "name": "Matra Smriti Hospital",
    "source": "OpenGovernmentData"
  }
},
{
  "type": "node",
  "id": 6965836221,
  "lat": 21.2465873,
  "lon": 81.6236986,
  "tags": {
    "addr:district": "Raipur",
    "addr:full": "358, Samta Colony",
    "addr:postcode": "492001",
    "addr:state": "Chhattisgarh",
    "amenity": "hospital",
    "name": "M D Hospital and Iccu",
    "source": "OpenGovernmentData"
  }
},
{
  "type": "node",
  "id": 6965862891,
  "lat": 21.1852230,
  "lon": 80.7509269,
  "tags": {
    "addr:district": "Rajnandgaon",
    "addr:full": "Rajnandgaon",
    "addr:postcode": "491445",
    "addr:state": "Chhattisgarh",
    "amenity": "hospital",
    "name": "Maa Babmleshwari Dharmarth Chikitsalaya",
    "source": "OpenGovernmentData"
  }
},
{
  "type": "node",
  "id": 6966522779,
  "lat": 21.2783101,
  "lon": 81.7026642,
  "tags": {
    "addr:district": "Raipur",
    "addr:full": "5Th Mile, Vidhan Sabha Road",
    "addr:postcode": "492001",
    "addr:state": "Chhattisgarh",
    "amenity": "hospital",
    "name": "Mgm Eye Hospital",
    "source": "OpenGovernmentData"
  }
},
{
  "type": "node",
  "id": 6966551419,
  "lat": 21.2145208,
  "lon": 81.2964517,
  "tags": {
    "addr:district": "Durg",
    "addr:full": "Dhamdha Road , New Kadambari Nagar",
    "addr:postcode": "491001",
    "addr:state": "Chhattisgarh",
    "amenity": "hospital",
    "name": "Amrit Kalash Hospital",
    "source": "OpenGovernmentData"
  }
},
{
  "type": "node",
  "id": 6966551424,
  "lat": 22.3594712,
  "lon": 82.7236055,
  "tags": {
    "addr:district": "Korba",
    "addr:full": "Maharana Pratap Nagar",
    "addr:postcode": "495678",
    "addr:state": "Chhattisgarh",
    "amenity": "hospital",
    "healthcare": "hospital",
    "name": "Akshay Hospital",
    "source": "OpenGovernmentData"
  }
},
{
  "type": "node",
  "id": 6966551429,
  "lat": 21.2103856,
  "lon": 81.2948404,
  "tags": {
    "addr:district": "Durg",
    "addr:full": "Kadambari Nagar",
    "addr:postcode": "491001",
    "addr:state": "Chhattisgarh",
    "amenity": "hospital",
    "name": "Shree Balaji Hospital, Durg",
    "source": "OpenGovernmentData"
  }
},
{
  "type": "node",
  "id": 6966551434,
  "lat": 21.1821102,
  "lon": 81.2670828,
  "tags": {
    "addr:district": "Durg",
    "addr:full": "Housing Board Complex, New Bus Stand",
    "addr:postcode": "491001",
    "addr:state": "Chhattisgarh",
    "amenity": "hospital",
    "name": "Rajvanshi Memorial Hospital",
    "source": "OpenGovernmentData"
  }
},
{
  "type": "node",
  "id": 6966551463,
  "lat": 21.2564347,
  "lon": 81.6388497,
  "tags": {
    "addr:district": "Raipur",
    "addr:full": "Jail Road",
    "addr:postcode": "492001",
    "addr:state": "Chhattisgarh",
    "amenity": "hospital",
    "name": "Suprita Hospital",
    "source": "OpenGovernmentData"
  }
},
{
  "type": "node",
  "id": 6966773180,
  "lat": 22.0880849,
  "lon": 82.1334900,
  "tags": {
    "addr:district": "Bilaspur",
    "addr:full": "Nehru Nagar Road , Near Swimming Pool",
    "addr:postcode": "495001",
    "addr:state": "Chhattisgarh",
    "amenity": "hospital",
    "name": "Luthra Hospital And Research Centre",
    "source": "OpenGovernmentData"
  }
},
{
  "type": "node",
  "id": 6966792004,
  "lat": 21.5540159,
  "lon": 81.7903335,
  "tags": {
    "addr:district": "Raipur",
    "addr:full": "Tilda, Po - Neora",
    "addr:postcode": "493114",
    "addr:state": "Chhattisgarh",
    "amenity": "hospital",
    "healthcare": "hospital",
    "name": "Evangelical Mission Hospital",
    "source": "OpenGovernmentData"
  }
},
{
  "type": "node",
  "id": 6966792010,
  "lat": 21.2456986,
  "lon": 81.6175885,
  "tags": {
    "addr:district": "Raipur",
    "addr:full": "Main Road, Samata Colony",
    "addr:postcode": "492001",
    "addr:state": "Chhattisgarh",
    "amenity": "hospital",
    "name": "Lifeworth Super Speciality Hospital",
    "source": "OpenGovernmentData"
  }
},
{
  "type": "node",
  "id": 6966792015,
  "lat": 21.1906971,
  "lon": 81.2863753,
  "tags": {
    "addr:district": "Durg",
    "addr:full": "Station Road",
    "addr:postcode": "491001",
    "addr:state": "Chhattisgarh",
    "amenity": "hospital",
    "name": "Vardhman Hospital, Durg",
    "source": "OpenGovernmentData"
  }
},
{
  "type": "node",
  "id": 6966904907,
  "lat": 21.2363311,
  "lon": 81.6213289,
  "tags": {
    "addr:district": "Raipur",
    "addr:full": "Lakhe Nagar Chowk, Opposite Mai Ki Bagiya, Lakhe Nagar",
    "addr:postcode": "492001",
    "addr:state": "Chhattisgarh",
    "amenity": "hospital",
    "name": "Shri Manulal Memorial Medical Centre",
    "source": "OpenGovernmentData"
  }
},
{
  "type": "node",
  "id": 6966904930,
  "lat": 21.2554704,
  "lon": 81.6406797,
  "tags": {
    "addr:district": "Raipur",
    "addr:full": "7150, Devendra Nagar, Near Sai Mandir",
    "addr:postcode": "492001",
    "addr:state": "Chhattisgarh",
    "amenity": "hospital",
    "name": "Sahu Hospital, Raipur",
    "source": "OpenGovernmentData"
  }
},
{
  "type": "node",
  "id": 6966904937,
  "lat": 18.7038697,
  "lon": 81.2486292,
  "tags": {
    "addr:district": "Dantewada",
    "addr:full": "Bacheli",
    "addr:postcode": "494553",
    "addr:state": "Chhattisgarh",
    "amenity": "hospital",
    "name": "N.M.D.C. Appolo Central Hospital",
    "source": "OpenGovernmentData"
  }
},
{
  "type": "node",
  "id": 6966904938,
  "lat": 23.1354234,
  "lon": 83.1691928,
  "tags": {
    "amenity": "hospital",
    "healthcare": "hospital",
    "name": "Vision Eye Care and Surgical Centre",
    "name:ur": "وژن آئی کیئر اینڈ سرجیکل سنٹر"
  }
},
{
  "type": "node",
  "id": 6966904966,
  "lat": 23.1110256,
  "lon": 83.1923195,
  "tags": {
    "addr:district": "Surguja",
    "addr:full": "Old Post Office Road",
    "addr:postcode": "497001",
    "addr:state": "Chhattisgarh",
    "amenity": "hospital",
    "name": "Kundla Memorial Hopital",
    "source": "OpenGovernmentData"
  }
},
{
  "type": "node",
  "id": 6966904971,
  "lat": 20.2985272,
  "lon": 81.0748677,
  "tags": {
    "addr:city": "Bhanupratappur",
    "addr:district": "Kanker",
    "addr:full": "Bhanupratapur",
    "addr:housenumber": "Nehru Nagar",
    "addr:postcode": "494669",
    "addr:state": "Chhattisgarh",
    "addr:street": "Antagarh Road",
    "amenity": "hospital",
    "healthcare:speciality": "general",
    "name": "Gautam Hospital",
    "operator:type": "private",
    "source": "OpenGovernmentData"
  }
},
{
  "type": "node",
  "id": 6966904976,
  "lat": 21.2454224,
  "lon": 81.6245992,
  "tags": {
    "addr:district": "Raipur",
    "addr:full": "Opp: Krishna Talkies Ramanath Bhimsen Bhawan",
    "addr:postcode": "492001",
    "addr:state": "Chhattisgarh",
    "amenity": "hospital",
    "name": "Agrasen Hospital",
    "source": "OpenGovernmentData"
  }
},
{
  "type": "node",
  "id": 6968263336,
  "lat": 22.0642399,
  "lon": 82.1837082,
  "tags": {
    "addr:district": "Bilaspur",
    "addr:full": "Near Gurunanak Chowk Masturi Road",
    "addr:postcode": "495001",
    "addr:state": "Chhattisgarh",
    "amenity": "hospital",
    "name": "Nibha Mitra Memorial Hospital",
    "source": "OpenGovernmentData"
  }
},
{
  "type": "node",
  "id": 6968263351,
  "lat": 21.3358834,
  "lon": 82.7694965,
  "tags": {
    "addr:district": "Mahasamund",
    "addr:full": "Mahasamund",
    "addr:postcode": "493555",
    "addr:state": "Chhattisgarh",
    "amenity": "hospital",
    "name": "Sewabhawan Hospital",
    "source": "OpenGovernmentData"
  }
},
{
  "type": "node",
  "id": 6968263357,
  "lat": 19.0505409,
  "lon": 81.9483088,
  "tags": {
    "addr:district": "Bastar",
    "addr:full": "Government Medical College, NMDC, Jagdalpur",
    "addr:postcode": "494001",
    "addr:state": "Chhattisgarh",
    "amenity": "hospital",
    "name": "Government Medical College Hospital, Bastar",
    "operator:type": "government",
    "source": "OpenGovernmentData",
    "website": "http://gmcj.in/"
  }
},
{
  "type": "node",
  "id": 6968263373,
  "lat": 21.2519750,
  "lon": 81.6391427,
  "tags": {
    "addr:district": "Raipur",
    "addr:full": "Pt.Jawaharlal Nehru Memorial Medical College, Jail Road",
    "addr:postcode": "492001",
    "addr:state": "Chhattisgarh",
    "amenity": "hospital",
    "name": "Pt.J N M Medical College Hospital",
    "operator:type": "government",
    "source": "OpenGovernmentData",
    "website": "https://ptjnmcraipur.in/"
  }
},
{
  "type": "node",
  "id": 6968280725,
  "lat": 21.8550470,
  "lon": 81.9208440,
  "tags": {
    "addr:district": "Bilaspur",
    "addr:full": "Baitalpur",
    "addr:postcode": "495001",
    "addr:state": "Chhattisgarh",
    "amenity": "hospital",
    "name": "Tlm Laprocy Mission Hospital",
    "source": "OpenGovernmentData"
  }
},
{
  "type": "node",
  "id": 6968280735,
  "lat": 22.9932172,
  "lon": 83.2017253,
  "tags": {
    "addr:district": "Surguja",
    "addr:full": "Block- Bhaufauli, Post +Village Darima",
    "addr:postcode": "497001",
    "addr:state": "Chhattisgarh",
    "addr:subdistrict": "Ambikapur",
    "amenity": "hospital",
    "contact:phone": "7763223927",
    "healthcare": "centre",
    "name": "Government Hospital,Darima",
    "source": "OpenGovernmentData"
  }
},
{
  "type": "node",
  "id": 6968280740,
  "lat": 21.2532719,
  "lon": 81.6651843,
  "tags": {
    "addr:district": "Raipur",
    "addr:full": "Gaushala Road, Near Telephone Exchange",
    "addr:postcode": "493118",
    "addr:state": "Chhattisgarh",
    "amenity": "hospital",
    "name": "Kanwar Hospital, Raipur",
    "source": "OpenGovernmentData"
  }
},
{
  "type": "node",
  "id": 6968280745,
  "lat": 21.2468461,
  "lon": 81.6415286,
  "tags": {
    "addr:district": "Raipur",
    "addr:full": "Kutchery Chowk",
    "addr:postcode": "492001",
    "addr:state": "Chhattisgarh",
    "amenity": "hospital",
    "name": "Raipur Hospital",
    "source": "OpenGovernmentData"
  }
},
{
  "type": "node",
  "id": 6968280746,
  "lat": 21.2057046,
  "lon": 81.3476711,
  "tags": {
    "addr:district": "Durg",
    "addr:full": "1/24, Dakshin Gangotry",
    "addr:postcode": "490020",
    "addr:state": "Chhattisgarh",
    "amenity": "hospital",
    "name": "Sharma Nethralaya",
    "source": "OpenGovernmentData"
  }
},
{
  "type": "node",
  "id": 6968280757,
  "lat": 21.0957177,
  "lon": 81.0087740,
  "tags": {
    "addr:district": "Rajnandgaon",
    "addr:full": "Near Pts",
    "addr:postcode": "491441",
    "addr:state": "Chhattisgarh",
    "amenity": "hospital",
    "name": "Christian Fellowship Hospital",
    "source": "OpenGovernmentData"
  }
},
{
  "type": "node",
  "id": 6968280764,
  "lat": 22.0317186,
  "lon": 82.6550874,
  "tags": {
    "addr:district": "Janjgir-Champa",
    "addr:full": "Janjgir-Champa",
    "addr:postcode": "495671",
    "addr:state": "Chhattisgarh",
    "amenity": "hospital",
    "name": "The Leprosy Mission Hospital",
    "source": "OpenGovernmentData"
  }
},
{
  "type": "node",
  "id": 6968280774,
  "lat": 21.2208074,
  "lon": 81.6410136,
  "tags": {
    "addr:district": "Raipur",
    "addr:full": "Near Postal Colony, Sanjay Nagar",
    "addr:postcode": "492001",
    "addr:state": "Chhattisgarh",
    "amenity": "hospital",
    "name": "Sanjeewan Hospital, Raipur",
    "source": "OpenGovernmentData"
  }
},
{
  "type": "node",
  "id": 6968280783,
  "lat": 21.9275414,
  "lon": 83.3592233,
  "tags": {
    "addr:district": "Raigarh",
    "addr:full": "Kharsia Road",
    "addr:postcode": "496001",
    "addr:state": "Chhattisgarh",
    "amenity": "hospital",
    "emergency": "yes",
    "healthcare": "hospital",
    "name": "Fortis O. P. Jindal Hospital And Research Center",
    "source": "OpenGovernmentData"
  }
},
{
  "type": "node",
  "id": 6968280784,
  "lat": 23.1211958,
  "lon": 83.1923497,
  "tags": {
    "addr:district": "Surguja",
    "addr:full": "Shitalaward, Ambikapur",
    "addr:postcode": "497001",
    "addr:state": "Chhattisgarh",
    "amenity": "hospital",
    "name": "Shriram Hospital, Surguja",
    "source": "OpenGovernmentData"
  }
},