{
  "version": 0.6,
  "generator": "Overpass API 0.7.62.8 e802775f",
  "osm3s": {
    "timestamp_osm_base": "2025-11-30T11:21:59Z",
    "copyright": "The data included in this document is from www.openstreetmap.org. The data is made available under ODbL."
  },
  "elements": [

{
  "type": "node",
  "id": 444597688,
  "lat": 36.3094952,
  "lon": 74.6144969,
  "tags": {
    "amenity": "hospital",
    "name": "Aliabad, Hospital"
  }
},
{
  "type": "node",
  "id": 485594432,
  "lat": 34.5491569,
  "lon": 77.5529759,
  "tags": {
    "amenity": "hospital"
  }
},
{
  "type": "node",
  "id": 485617329,
  "lat": 34.0329113,
  "lon": 78.1680282,
  "tags": {
    "amenity": "hospital"
  }
},
{
  "type": "node",
  "id": 773641430,
  "lat": 32.4432860,
  "lon": 76.5409532,
  "tags": {
    "amenity": "hospital",
    "name": "Ayurvedic Hospital, Bharmour"
  }
},
{
  "type": "node",
  "id": 775411497,
  "lat": 33.0811597,
  "lon": 76.4071944,
  "tags": {
    "amenity": "hospital",
    "name": "Ayurvedic Health Centre, Kilar"
  }
},
{
  "type": "node",
  "id": 810046393,
  "lat": 32.6840914,
  "lon": 76.6958958,
  "tags": {
    "amenity": "hospital",
    "name": "Ayurvedic Health Centre, Triloknath"
  }
},
{
  "type": "node",
  "id": 880532051,
  "lat": 36.3063982,
  "lon": 74.6125464,
  "tags": {
    "amenity": "hospital",
    "name": "Aga Khan Health Center"
  }
},
{
  "type": "node",
  "id": 971650089,
  "lat": 32.9081188,
  "lon": 77.5773924,
  "tags": {
    "amenity": "hospital",
    "name": "Army Hospital"
  }
},
{
  "type": "node",
  "id": 1794790460,
  "lat": 32.7512875,
  "lon": 74.9085736,
  "tags": {
    "amenity": "hospital",
    "name": "Batra Hospital"
  }
},
{
  "type": "node",
  "id": 1794812611,
  "lat": 32.6944320,
  "lon": 74.8486745,
  "tags": {
    "amenity": "hospital",
    "name": "GB Pant Hospital"
  }
},
{
  "type": "node",
  "id": 1796757670,
  "lat": 32.7064477,
  "lon": 74.8588765,
  "tags": {
    "addr:district": "Jammu",
    "addr:full": "37 A/C, Gandhi Nagar",
    "addr:postcode": "180004",
    "addr:state": "Jammu and Kashmir",
    "amenity": "hospital",
    "name": "Madaan Hospital And Research Centre",
    "source": "OpenGovernmentData"
  }
},
{
  "type": "node",
  "id": 1804141903,
  "lat": 34.0862274,
  "lon": 74.7976722,
  "tags": {
    "addr:district": "Srinagar",
    "addr:full": "Karan Nagar",
    "addr:postcode": "190010",
    "addr:state": "Jammu and Kashmir",
    "alt_name": "Shri Maharaja Hari Singh Hospital",
    "amenity": "hospital",
    "healthcare": "hospital",
    "name": "SMHS Hospital",
    "name:en": "SMHS hospital Headwun",
    "operator:type": "government",
    "source": "OpenGovernmentData",
    "wikidata": "Q19898416",
    "wikipedia": "en:SMHS Hospital"
  }
},
{
  "type": "node",
  "id": 2027805349,
  "lat": 34.2355862,
  "lon": 77.3999574,
  "tags": {
    "amenity": "hospital",
    "emergency": "yes",
    "name": "Sub Center (Hospital)"
  }
},
{
  "type": "node",
  "id": 2379445977,
  "lat": 34.0778244,
  "lon": 74.8304699,
  "tags": {
    "addr:city": "Srinagar",
    "addr:district": "Srinagar",
    "addr:full": "Dal Gate",
    "addr:postcode": "190001",
    "addr:state": "Jammu and Kashmir",
    "addr:street": "Drugjan, Dal Gate Road",
    "amenity": "hospital",
    "healthcare": "hospital",
    "name": "Govt Chest Diseases Hospital",
    "short_name": "CD Hospital",
    "source": "OpenGovernmentData"
  }
},
{
  "type": "node",
  "id": 2418857836,
  "lat": 32.5988327,
  "lon": 74.0800958,
  "tags": {
    "addr:postcode": "70500",
    "addr:street": "Bhimber Road",
    "amenity": "hospital",
    "emergency": "yes",
    "internet_access": "wlan",
    "name": "Aziz bhati Hospital",
    "name:en": "Aziz Bhatti Shaheed Teaching Hospital",
    "opening_hours": "24/7",
    "phone": "0539260101"
  }
},
{
  "type": "node",
  "id": 2463768911,
  "lat": 33.9844461,
  "lon": 73.7747800,
  "tags": {
    "amenity": "hospital"
  }
},
{
  "type": "node",
  "id": 2592452175,
  "lat": 34.1084243,
  "lon": 77.5912051,
  "tags": {
    "amenity": "hospital",
    "name": "Tibetian Health Centre"
  }
},
{
  "type": "node",
  "id": 2776788099,
  "lat": 32.9497193,
  "lon": 73.7461330,
  "tags": {
    "amenity": "hospital",
    "name": "Fazl-E-Illahi Hospital"
  }
},
{
  "type": "node",
  "id": 2776917401,
  "lat": 32.9463309,
  "lon": 73.7449020,
  "tags": {
    "amenity": "hospital",
    "name": "Yaqoob Hospital"
  }
},
{
  "type": "node",
  "id": 2776942914,
  "lat": 32.9400913,
  "lon": 73.7404174,
  "tags": {
    "amenity": "hospital",
    "name": "Alqasim Hospital"
  }
},
{
  "type": "node",
  "id": 2776947214,
  "lat": 32.9384980,
  "lon": 73.7382067,
  "tags": {
    "amenity": "hospital",
    "name": "Pak Uk Hospital"
  }
},
{
  "type": "node",
  "id": 2835089028,
  "lat": 34.0846701,
  "lon": 74.7956011,
  "tags": {
    "amenity": "hospital",
    "healthcare": "hospital",
    "name": "erc eye care"
  }
},
{
  "type": "node",
  "id": 2835089115,
  "lat": 33.9431534,
  "lon": 74.7065201,
  "tags": {
    "amenity": "hospital",
    "name": "sub dist hospi tal khansahib"
  }
},
{
  "type": "node",
  "id": 2836000194,
  "lat": 33.9435165,
  "lon": 74.7998147,
  "tags": {
    "amenity": "hospital",
    "name": "Government Sub District Hospital"
  }
},
{
  "type": "node",
  "id": 2882855811,
  "lat": 33.8642746,
  "lon": 75.2786722,
  "tags": {
    "amenity": "hospital",
    "name": "primary health center"
  }
},
{
  "type": "node",
  "id": 2961536113,
  "lat": 32.3105345,
  "lon": 74.1454599,
  "tags": {
    "amenity": "hospital",
    "healthcare": "hospital",
    "name": "Ashraf Hospital"
  }
},
{
  "type": "node",
  "id": 2961536114,
  "lat": 32.3070132,
  "lon": 74.1475265,
  "tags": {
    "amenity": "hospital",
    "emergency": "yes",
    "healthcare": "hospital",
    "healthcare:speciality": "general;emergency",
    "name": "Fatima Bashir Hospital",
    "operator": "Dr. Amin",
    "phone": "+92 55 3880667"
  }
},
{
  "type": "node",
  "id": 2973877903,
  "lat": 34.8480733,
  "lon": 76.8317834,
  "tags": {
    "amenity": "hospital",
    "healthcare": "hospital",
    "name": "Ayushman Arogya Mandir - Public Health Center Turtuk",
    "operator": "Department of Public Health Service",
    "operator:type": "government"
  }
},
{
  "type": "node",
  "id": 2973880789,
  "lat": 34.5777687,
  "lon": 77.4764945,
  "tags": {
    "amenity": "hospital"
  }
},
{
  "type": "node",
  "id": 3045063823,
  "lat": 32.5617529,
  "lon": 76.1304628,
  "tags": {
    "amenity": "hospital",
    "name": "T B Hosptial"
  }
},
{
  "type": "node",
  "id": 3045696250,
  "lat": 32.3068426,
  "lon": 75.8943791,
  "tags": {
    "addr:block": "Gangath",
    "addr:district": "Kangra",
    "addr:full": "Chaugan Bus Stand Nurpur, Nurpur",
    "addr:postcode": "176202",
    "addr:state": "Himachal Pradesh",
    "amenity": "hospital",
    "contact:phone": "1893220036",
    "description": "Civil Hospital",
    "name": "Civil Hospital, Nurpur",
    "source": "OpenGovernmentData"
  }
},
{
  "type": "node",
  "id": 3144548123,
  "lat": 32.5770301,
  "lon": 74.0749309,
  "tags": {
    "addr:city": "gujrat",
    "addr:street": "Jinah Road",
    "amenity": "hospital",
    "name": "Ayesha Hospital"
  }
},
{
  "type": "node",
  "id": 3151303925,
  "lat": 32.5708064,
  "lon": 74.0749430,
  "tags": {
    "addr:city": "Gujrat",
    "addr:street": "Circular Road",
    "amenity": "hospital",
    "healthcare": "hospital",
    "name": "ayesha ilyas"
  }
},
{
  "type": "node",
  "id": 3151308187,
  "lat": 32.5683584,
  "lon": 74.0726202,
  "tags": {
    "amenity": "hospital",
    "healthcare": "hospital",
    "name": "بشیر ہسپتال",
    "name:ar": "مستشفى البشير",
    "name:en": "Bashir Hospital",
    "name:ur": "بشیر ہسپتال"
  }
},
{
  "type": "node",
  "id": 3151317382,
  "lat": 32.5670684,
  "lon": 74.0662278,
  "tags": {
    "addr:city": "Gujrat",
    "addr:street": "Sargodha Road",
    "amenity": "hospital",
    "healthcare": "hospital",
    "name": "Innayat Children Hospital"
  }
},
{
  "type": "node",
  "id": 3151320736,
  "lat": 32.5708810,
  "lon": 74.0753963,
  "tags": {
    "addr:city": "Gujrat",
    "addr:street": "Circular Road",
    "amenity": "hospital",
    "healthcare": "hospital",
    "name": "ayesha ilyas hospital"
  }
},
{
  "type": "node",
  "id": 3151324285,
  "lat": 32.5721005,
  "lon": 74.0817022,
  "tags": {
    "addr:city": "گجرات",
    "addr:street": "سرکلر روڈ",
    "amenity": "hospital",
    "healthcare": "hospital",
    "name": "الاحمد کلینک",
    "name:en": "Al-Ahmad Clinic",
    "name:ur": "الاحمد کلینک"
  }
},
{
  "type": "node",
  "id": 3151326945,
  "lat": 32.5756310,
  "lon": 74.0731097,
  "tags": {
    "addr:city": "Gujrat",
    "addr:street": "Qamar Sialvi Road",
    "amenity": "hospital",
    "name": "Atiya Clinic"
  }
},
{
  "type": "node",
  "id": 3151327373,
  "lat": 32.5724802,
  "lon": 74.0749443,
  "tags": {
    "addr:city": "Gujrat",
    "addr:street": "Opposite to Wapda House Circular Road",
    "amenity": "hospital",
    "healthcare": "hospital",
    "name": "Rehmat Hospital"
  }
},
{
  "type": "node",
  "id": 3151330068,
  "lat": 32.5775816,
  "lon": 74.0750007,
  "tags": {
    "addr:city": "Gujrat",
    "addr:street": "Jinah Road",
    "amenity": "hospital",
    "name": "Ali Children"
  }
},
{
  "type": "node",
  "id": 3151332349,
  "lat": 32.5836365,
  "lon": 74.0731821,
  "tags": {
    "addr:city": "Gujrat",
    "addr:street": "Ice Factory Road",
    "amenity": "hospital",
    "name": "Malik Haider Hospital"
  }
},
{
  "type": "node",
  "id": 3151336316,
  "lat": 32.5695347,
  "lon": 74.0842997,
  "tags": {
    "addr:city": "Gujrat",
    "addr:street": "Sultan Abad Road",
    "amenity": "hospital",
    "name": "Zoha Clinic"
  }
},
{
  "type": "node",
  "id": 3151337416,
  "lat": 32.5792087,
  "lon": 74.0803515,
  "tags": {
    "addr:city": "Gujrat",
    "addr:street": "Court Road",
    "amenity": "hospital",
    "name": "Mirza Akram Hospital"
  }
},
{
  "type": "node",
  "id": 3151339106,
  "lat": 32.5959097,
  "lon": 74.0795468,
  "tags": {
    "addr:city": "Gujrat",
    "addr:street": "Bhimber Road",
    "amenity": "hospital",
    "name": "Gujrat Hospital"
  }
},
{
  "type": "node",
  "id": 3151342385,
  "lat": 32.5960408,
  "lon": 74.0795522,
  "tags": {
    "addr:city": "Gujrat",
    "addr:street": "Bhimber Road",
    "amenity": "hospital",
    "name": "Punjab Medical Center"
  }
},
{
  "type": "node",
  "id": 3151345735,
  "lat": 32.5992043,
  "lon": 74.1288565,
  "tags": {
    "addr:city": "Gujrat",
    "addr:street": "Jalalpur jattan Road",
    "amenity": "hospital",
    "name": "Habib Clinic"
  }
},
{
  "type": "node",
  "id": 3151352472,
  "lat": 32.6080934,
  "lon": 74.0790801,
  "tags": {
    "addr:city": "Gujrat",
    "addr:street": "Bhimber Road",
    "amenity": "hospital",
    "name": "Umeed Clinic and Maternity Hospital"
  }
},
{
  "type": "node",
  "id": 3155760193,
  "lat": 32.3316212,
  "lon": 78.0075773,
  "tags": {
    "amenity": "hospital"
  }
},
{
  "type": "node",
  "id": 3166500036,
  "lat": 32.5845215,
  "lon": 74.0766433,
  "tags": {
    "addr:city": "Gujrat",
    "addr:street": "Jail Road",
    "amenity": "hospital",
    "name": "Doctor Hospital"
  }
},
{
  "type": "node",
  "id": 3178797941,
  "lat": 32.5837579,
  "lon": 74.0765087,
  "tags": {
    "addr:city": "Gujrat",
    "addr:street": "Jinah Road",
    "amenity": "hospital",
    "name": "Hashmat Medical Complex"
  }
},
{
  "type": "node",
  "id": 3522756510,
  "lat": 35.9184566,
  "lon": 74.3034079,
  "tags": {
    "amenity": "hospital"
  }
},
{
  "type": "node",
  "id": 3552554434,
  "lat": 32.3265339,
  "lon": 74.3425802,
  "tags": {
    "amenity": "hospital",
    "healthcare": "hospital",
    "name": "Cheema Hospital"
  }
},
{
  "type": "node",
  "id": 3564677594,
  "lat": 33.9795966,
  "lon": 73.7711485,
  "tags": {
    "amenity": "hospital",
    "name": "Qamar Hospital Bagh"
  }
},
{
  "type": "node",
  "id": 3564683673,
  "lat": 33.9734293,
  "lon": 73.7922028,
  "tags": {
    "amenity": "hospital",
    "name": "DHQ Hospital"
  }
},
{
  "type": "node",
  "id": 3706035309,
  "lat": 32.7296159,
  "lon": 74.8411043,
  "tags": {
    "addr:district": "Jammu",
    "addr:full": "A unit of Bee Enn Charitable Trust, Talab Tillo Road",
    "addr:postcode": "180002",
    "addr:state": "Jammu and Kashmir",
    "amenity": "hospital",
    "email": "bngh@beeenngroup.com",
    "healthcare:speciality": "multi speciality",
    "name": "Bee Enn General Hospital",
    "operator:type": "private",
    "source": "OpenGovernmentData",
    "website": "http://www.beeenngroup.com"
  }
},
{
  "type": "node",
  "id": 4025140838,
  "lat": 36.2406545,
  "lon": 74.4828915,
  "tags": {
    "amenity": "hospital"
  }
},
{
  "type": "node",
  "id": 4029535476,
  "lat": 36.2777904,
  "lon": 74.7237744,
  "tags": {
    "amenity": "hospital"
  }
},
{
  "type": "node",
  "id": 4202201391,
  "lat": 33.1426179,
  "lon": 73.9946405,
  "tags": {
    "addr:street": "Choki Smahni Road",
    "amenity": "hospital",
    "name": "Zahedi Hospital  (Pvt).",
    "opening_hours": "Mo-Su 08:00-21:00",
    "phone": "00923455513333"
  }
},
{
  "type": "node",
  "id": 4255226702,
  "lat": 32.5793184,
  "lon": 74.0753916,
  "tags": {
    "addr:street": "Jinah Road",
    "amenity": "hospital",
    "name": "Ali Children Hospital",
    "opening_hours": "Sa-Th",
    "phone": "053 3510020"
  }
},
{
  "type": "node",
  "id": 4292611756,
  "lat": 34.0348106,
  "lon": 73.7678626,
  "tags": {
    "amenity": "hospital",
    "name": "Hakeem Cardiologist Nick Name Sain "
  }
},
{
  "type": "node",
  "id": 4352481797,
  "lat": 33.1294189,
  "lon": 73.6165932,
  "tags": {
    "amenity": "hospital",
    "name": "CMH MANGLA"
  }
},
{
  "type": "node",
  "id": 4362391823,
  "lat": 35.9221015,
  "lon": 74.3322704,
  "tags": {
    "addr:city": "Gilgit",
    "addr:postcode": "15100",
    "addr:street": "River View Road",
    "amenity": "hospital",
    "emergency": "yes",
    "healthcare": "hospital",
    "healthcare:speciality": "general;biology;chiropractic;gynaecology;ophthalmology;orthopaedics;dermatology",
    "name": "City Goverment Hospital",
    "operator": "Government",
    "operator:type": "government"
  }
},
{
  "type": "node",
  "id": 4364239600,
  "lat": 32.4291858,
  "lon": 73.5731200,
  "tags": {
    "amenity": "hospital",
    "healthcare": "hospital",
    "name": "Govt Hospital"
  }
},
{
  "type": "node",
  "id": 4366015691,
  "lat": 32.4299105,
  "lon": 73.5813687,
  "tags": {
    "amenity": "hospital",
    "name:en": "Animals Hospital"
  }
},
{
  "type": "node",
  "id": 4368203390,
  "lat": 32.4357141,
  "lon": 73.5784859,
  "tags": {
    "amenity": "hospital",
    "healthcare": "hospital",
    "name:en": "Shahzaib Hospital"
  }
},
{
  "type": "node",
  "id": 4369053859,
  "lat": 34.4302684,
  "lon": 75.7543850,
  "tags": {
    "amenity": "hospital",
    "note": "This is a large hospital, and seems to contain many buildings, I'm not sure what buildings are part of the hospital, and what not so I added it as a single node. Please improve."
  }
},
{
  "type": "node",
  "id": 4384842890,
  "lat": 32.5043205,
  "lon": 74.5504252,
  "tags": {
    "amenity": "hospital",
    "name": "Khwaja Muhammad Safdar Medical College",
    "name:en": "Khwaja Muhammad Safdar Medical College"
  }
},
{
  "type": "node",
  "id": 4419225091,
  "lat": 33.7539983,
  "lon": 73.9064188,
  "tags": {
    "addr:street": "Hajira  road",
    "amenity": "hospital",
    "name": "ہود",
    "name:en": "ہود"
  }
},
{
  "type": "node",
  "id": 4439299795,
  "lat": 32.4300011,
  "lon": 73.5682927,
  "tags": {
    "amenity": "hospital",
    "healthcare": "hospital",
    "name:en": "Phalia Rafaaye Medical Centre"
  }
},
{
  "type": "node",
  "id": 4469614889,
  "lat": 32.8959483,
  "lon": 73.7600970,
  "tags": {
    "amenity": "hospital",
    "name": "THQ Sarae Alam Gir",
    "opening_hours": "Mo-Sa 08:00-14:00"
  }
},
{
  "type": "node",
  "id": 4514099092,
  "lat": 32.3358908,
  "lon": 74.3648834,
  "tags": {
    "addr:street": "College Road",
    "amenity": "hospital",
    "healthcare": "hospital",
    "name": "Barik Hospital",
    "name:en": "Barik Hospital"
  }
},
{
  "type": "node",
  "id": 4514141289,
  "lat": 32.3370488,
  "lon": 74.3694538,
  "tags": {
    "addr:street": "Sialkot Road",
    "amenity": "hospital",
    "healthcare": "hospital",
    "name": "Younas Hospital",
    "name:en": "Younas Hospital",
    "opening_hours": "24/7"
  }
},
{
  "type": "node",
  "id": 4721551389,
  "lat": 32.6252233,
  "lon": 73.9670895,
  "tags": {
    "addr:street": "Dinga - Gujrat Road",
    "amenity": "hospital",
    "name": "Kanwar Saeed Hospital",
    "name:en": "Kanwar Saeed Hospital"
  }
},
{
  "type": "node",
  "id": 4721551390,
  "lat": 32.6888498,
  "lon": 73.7674331,
  "tags": {
    "amenity": "hospital",
    "name": "Kanwar Saeed Hospital",
    "name:en": "Kanwar Saeed Hospital"
  }
},
{
  "type": "node",
  "id": 4721551989,
  "lat": 32.8304014,
  "lon": 73.9265281,
  "tags": {
    "addr:city": "Pindi Hashim",
    "addr:street": "Near Doga Road",
    "amenity": "hospital",
    "description": "Village Pindi Hashim Tehsil Kharian District Gujrat Punjab Province Pakistan",
    "emergency": "yes",
    "healthcare:speciality": "community;general",
    "name": "HASHIM Welfare Hospital Pindi Hashim",
    "name:ur": "ہاشم ویلفیئر ہاسپٹل پنڈی ہاشم",
    "operator": "Hashim Welfare Society Pindi Hashim",
    "operator:type": "association"
  }
},
{
  "type": "node",
  "id": 4741034024,
  "lat": 32.5952988,
  "lon": 74.0790345,
  "tags": {
    "addr:postcode": "50700",
    "addr:street": "Bhimber Road",
    "amenity": "hospital",
    "internet_access": "wlan",
    "name": "Doctors hospital",
    "name:en": "Ikram hospital"
  }
},
{
  "type": "node",
  "id": 4741034025,
  "lat": 32.5846691,
  "lon": 74.0763675,
  "tags": {
    "addr:street": "Jail Road",
    "amenity": "hospital",
    "name": "Doctors hospital",
    "name:en": "Doctors hospital"
  }
},
{
  "type": "node",
  "id": 4744465821,
  "lat": 32.7127032,
  "lon": 74.2835854,
  "tags": {
    "addr:postcode": "50700",
    "amenity": "hospital",
    "name": "Alfazal Hospital",
    "name:en": "Alfazal Hospital"
  }
},
{
  "type": "node",
  "id": 4744465823,
  "lat": 32.4308901,
  "lon": 73.5820277,
  "tags": {
    "amenity": "hospital",
    "name": "Alshifa family hospital",
    "name:en": "Alshifa family hospital"
  }
},
{
  "type": "node",
  "id": 4746430625,
  "lat": 32.6260726,
  "lon": 73.7241004,
  "tags": {
    "amenity": "hospital",
    "name": "Noor Fatima hospital",
    "name:en": "Noor Fatima hospital"
  }
},
{
  "type": "node",
  "id": 4746467121,
  "lat": 32.6414647,
  "lon": 73.7303067,
  "tags": {
    "addr:city": "ڈنگہ",
    "addr:street": "ڈنگہ - گجرات سڑک",
    "amenity": "hospital",
    "healthcare": "hospital",
    "name": "الفیزان سرجیکل ہسپتال",
    "name:en": "Alfaizan Surgical Hospital",
    "name:ur": "الفیزان سرجیکل ہسپتال"
  }
},
{
  "type": "node",
  "id": 4746478625,
  "lat": 32.8080575,
  "lon": 73.8691758,
  "tags": {
    "addr:street": "Dinga Road",
    "amenity": "hospital",
    "name": "Amir Javid medical complex",
    "name:en": "Amir Javid medical complex"
  }
},
{
  "type": "node",
  "id": 4746623121,
  "lat": 32.6115893,
  "lon": 73.6900759,
  "tags": {
    "amenity": "hospital",
    "name": "Khalil hospital",
    "name:en": "Khalil hospital"
  }
},
{
  "type": "node",
  "id": 4755788822,
  "lat": 32.6900527,
  "lon": 73.9641862,
  "tags": {
    "addr:street": "Grand Trunk Road",
    "amenity": "hospital",
    "name": "Rehmat children hospital",
    "name:en": "Rehmat children hospital"
  }
},
{
  "type": "node",
  "id": 4780400904,
  "lat": 32.9752205,
  "lon": 73.6870826,
  "tags": {
    "addr:city": "Jhelum",
    "addr:postcode": "49600",
    "addr:street": "Grand Trunk Road, Kalagujran",
    "amenity": "hospital",
    "name": "Rescue 1122",
    "operator": "1122",
    "phone": "+92544649330",
    "website": "www.facebook.com/rescue1122jlm"
  }
},
{
  "type": "node",
  "id": 4865408821,
  "lat": 32.6985219,
  "lon": 74.3654767,
  "tags": {
    "addr:street": "Tanda road",
    "amenity": "hospital",
    "name": "Government Rural Health Centre Tanda",
    "opening_hours": "Mo-Sa"
  }
},
{
  "type": "node",
  "id": 4865454723,
  "lat": 32.7015029,
  "lon": 74.3705881,
  "tags": {
    "amenity": "hospital",
    "name": "Village Hospital Tanda",
    "name:en": "Village Hospital Tanda"
  }
},
{
  "type": "node",
  "id": 4901724089,
  "lat": 32.4952063,
  "lon": 74.5415095,
  "tags": {
    "addr:city": "Sialkot",
    "addr:street": "Urdu Bazar Rd",
    "amenity": "hospital",
    "name": "Al-Sheikh Hospital"
  }
},
{
  "type": "node",
  "id": 4901925831,
  "lat": 32.4637481,
  "lon": 74.5590687,
  "tags": {
    "addr:city": "Sialkot",
    "addr:street": "Sialkot - Pasrur - Narowal Road",
    "amenity": "hospital",
    "name": "Daska-Pasrur Road"
  }
},
{
  "type": "node",
  "id": 4903343258,
  "lat": 32.4941009,
  "lon": 74.5490314,
  "tags": {
    "addr:city": "Sialkot",
    "addr:street": "Circular Road",
    "amenity": "hospital",
    "name": "Zulfiqar Hospital"
  }
},
{
  "type": "node",
  "id": 5109126724,
  "lat": 32.8041100,
  "lon": 73.8705247,
  "tags": {
    "amenity": "hospital",
    "name": "Allama Iqbal International Hospital",
    "name:en": "Allama Iqbal International Hospital"
  }
},
{
  "type": "node",
  "id": 5514787426,
  "lat": 32.5706441,
  "lon": 74.0763230,
  "tags": {
    "addr:postcode": "50700",
    "addr:street": "Fawara Chok",
    "amenity": "hospital",
    "email": "bilalahmeddar@hotmail.com",
    "internet_access": "wlan",
    "name": "Saaem Surgical & Maternity Home",
    "opening_hours": "Mo-Sa 00:00-24:00",
    "phone": "0539260432"
  }
},
{
  "type": "node",
  "id": 5533146521,
  "lat": 33.0249329,
  "lon": 73.6099491,
  "tags": {
    "addr:city": "دینہ",
    "addr:street": "گرینڈ ٹرنک روڈ",
    "amenity": "hospital",
    "healthcare": "hospital",
    "name": "بنیادی مرکز صحت",
    "name:en": "Primary Health Centre",
    "name:ur": "بنیادی مرکز صحت"
  }
},
{
  "type": "node",
  "id": 5538166921,
  "lat": 32.6404352,
  "lon": 74.2050050,
  "tags": {
    "addr:housenumber": "Chadni Chock 2",
    "addr:postcode": "50700",
    "addr:street": "Circular Road",
    "amenity": "hospital",
    "internet_access": "wlan",
    "name": "KHURSHEED QADIR HOSPITAL",
    "opening_hours": "24/7",
    "phone": "0533431212"
  }
},
{
  "type": "node",
  "id": 5634368320,
  "lat": 33.0236145,
  "lon": 75.3668280,
  "tags": {
    "amenity": "hospital",
    "healthcare": "hospital",
    "name": "Primary Health Centre Sudhmahadev"
  }
},
{
  "type": "node",
  "id": 5906027387,
  "lat": 32.5062489,
  "lon": 74.5465278,
  "tags": {
    "addr:postcode": "51310",
    "addr:street": "Commissioner Road, Sialkot",
    "amenity": "hospital",
    "name:en": "Government Allama Iqbal Memorial Teaching Hospital",
    "opening_hours": "24/7"
  }
},
{
  "type": "node",
  "id": 5936065431,
  "lat": 34.1095686,
  "lon": 74.7495608,
  "tags": {
    "amenity": "hospital",
    "name": "Govt. Unani Hospital"
  }
},
{
  "type": "node",
  "id": 5936065436,
  "lat": 34.0719672,
  "lon": 74.8380758,
  "tags": {
    "amenity": "hospital",
    "healthcare": "hospital",
    "healthcare:speciality": "urology"
  }
},
{
  "type": "node",
  "id": 5984439577,
  "lat": 34.0687752,
  "lon": 74.8435238,
  "tags": {
    "amenity": "hospital",
    "healthcare": "hospital",
    "name": "Govt. GB Pant Childrens Hospital"
  }
},
{
  "type": "node",
  "id": 6071486654,
  "lat": 33.6361671,
  "lon": 74.8916369,
  "tags": {
    "amenity": "hospital",
    "healthcare": "hospital",
    "name": "Sub-District Hospital Nehama"
  }
},
{
  "type": "node",
  "id": 6231498958,
  "lat": 34.0485234,
  "lon": 74.8045660,
  "tags": {
    "amenity": "hospital",
    "name": "Bone and Joint Hospital"
  }
},
{
  "type": "node",
  "id": 6231499424,
  "lat": 34.0478706,
  "lon": 74.8057865,
  "tags": {
    "amenity": "hospital",
    "healthcare": "hospital",
    "name": "Casualty"
  }
},
{
  "type": "node",
  "id": 6349331840,
  "lat": 35.2896696,
  "lon": 75.6201578,
  "tags": {
    "addr:city": "سکردو",
    "amenity": "hospital",
    "healthcare": "hospital",
    "name": "عبداللہ ہسپتال",
    "name:en": "Abdullah Hospital",
    "name:ur": "عبداللہ ہسپتال"
  }
},
{
  "type": "node",
  "id": 6408007785,
  "lat": 33.1470422,
  "lon": 73.7423422,
  "tags": {
    "amenity": "hospital",
    "healthcare": "hospital",
    "name": "KIC Kashmir Institute of Cardiology"
  }
},
{
  "type": "node",
  "id": 6902109426,
  "lat": 33.1427505,
  "lon": 75.5503178,
  "tags": {
    "addr:city": "Doda",
    "addr:district": "DODA",
    "addr:full": "District Hospital, Doda",
    "addr:postcode": "182202",
    "addr:state": "Jammu and Kashmir",
    "amenity": "hospital",
    "contact:helpline": "01996 233689",
    "contact:mobile": "9419168144",
    "contact:phone": "1996233689",
    "healthcare": "hospital",
    "name": "Disst Hospital Doda",
    "opening_hours": "24/7",
    "operator:type": "government",
    "source": "OpenGovernmentData"
  }
},
{
  "type": "node",
  "id": 6909848284,
  "lat": 33.1443798,
  "lon": 75.5436511,
  "tags": {
    "addr:district": "Doda",
    "addr:full": "Doda",
    "addr:postcode": "182145",
    "addr:state": "Jammu and Kashmir",
    "amenity": "hospital",
    "name": "District Hospital",
    "source": "OpenGovernmentData"
  }
},
{
  "type": "node",
  "id": 6909859193,
  "lat": 32.6723585,
  "lon": 74.9120627,
  "tags": {
    "addr:district": "Jammu",
    "addr:full": "513- C, Sainik Colony",
    "addr:postcode": "180011",
    "addr:state": "Jammu and Kashmir",
    "amenity": "hospital",
    "healthcare": "hospital",
    "healthcare:speciality": "ophthalmology",
    "name": "Dr. K.D's Eye Hospital",
    "operator:type": "private",
    "source": "OpenGovernmentData",
    "website": "http://www.kdeyehospital.com/"
  }
},
{
  "type": "node",
  "id": 6911115900,
  "lat": 32.7435391,
  "lon": 74.8613736,
  "tags": {
    "addr:district": "Jammu",
    "addr:full": "228,B C Road Opp National Garege Rehari Chungi",
    "addr:postcode": "180005",
    "addr:state": "Jammu and Kashmir",
    "amenity": "hospital",
    "name": "Maharishi Dayanand Hospital And Research Centre",
    "source": "OpenGovernmentData"
  }
},
{
  "type": "node",
  "id": 6911115901,
  "lat": 32.7492263,
  "lon": 74.8467314,
  "tags": {
    "addr:district": "Jammu",
    "addr:full": "2/155, Vikas Nagar, Subash Nagar",
    "addr:postcode": "180005",
    "addr:state": "Jammu and Kashmir",
    "amenity": "hospital",
    "name": "Kalindi Hospital And Diagnostic Centre",
    "source": "OpenGovernmentData"
  }
},
{
  "type": "node",
  "id": 6911115906,
  "lat": 32.7431476,
  "lon": 74.8586096,
  "tags": {
    "addr:district": "Jammu",
    "addr:full": "32, Rehari",
    "addr:postcode": "180005",
    "addr:state": "Jammu and Kashmir",
    "amenity": "hospital",
    "name": "SHS Memorial Nursingh Home",
    "source": "OpenGovernmentData"
  }
},
{
  "type": "node",
  "id": 6911115944,
  "lat": 32.6472798,
  "lon": 74.9000511,
  "tags": {
    "addr:district": "Jammu",
    "addr:full": "Ashiana Complex, Treth Morh, Bari Brahmana,Samba",
    "addr:postcode": "184121",
    "addr:state": "Jammu and Kashmir",
    "amenity": "hospital",
    "name": "Shree Aum Hospital",
    "source": "OpenGovernmentData"
  }
},
{
  "type": "node",
  "id": 6911120372,
  "lat": 34.2036558,
  "lon": 74.3520623,
  "tags": {
    "addr:postcode": "193101",
    "amenity": "hospital",
    "healthcare": "hospital",
    "name": "St. Joseph's Hospital",
    "name:ur": "سینٹ جوزف ہسپتال"
  }
},
{
  "type": "node",
  "id": 6911120378,
  "lat": 34.2066948,
  "lon": 74.3411860,
  "tags": {
    "addr:district": "Srinagar",
    "addr:full": "Baramulla, Near Police Station",
    "addr:postcode": "190001",
    "addr:state": "Jammu and Kashmir",
    "amenity": "hospital",
    "name": "Altaf Nursing Home",
    "source": "OpenGovernmentData"
  }
},
{
  "type": "node",
  "id": 6911120383,
  "lat": 34.0388535,
  "lon": 74.8090303,
  "tags": {
    "addr:district": "Srinagar",
    "addr:full": "Main Road, Chanapora",
    "addr:postcode": "190015",
    "addr:state": "Jammu and Kashmir",
    "amenity": "hospital",
    "name": "Florence Hospital, Srinagar",
    "source": "OpenGovernmentData"
  }
},
{
  "type": "node",
  "id": 6911122296,
  "lat": 32.7015584,
  "lon": 74.8789474,
  "tags": {
    "addr:district": "Jammu",
    "addr:full": "78/8, New Bye Pass Road, Railway Station, Trikota Nagar",
    "addr:postcode": "180004",
    "addr:state": "Jammu and Kashmir",
    "amenity": "hospital",
    "name": "Care-N-Cure Hospital",
    "source": "OpenGovernmentData"
  }
},
{
  "type": "node",
  "id": 6911122301,
  "lat": 34.2794977,
  "lon": 74.4317293,
  "tags": {
    "addr:district": "Baramulla",
    "addr:full": "Near Fruit Mandi Sopore",
    "addr:postcode": "193201",
    "addr:state": "Jammu and Kashmir",
    "amenity": "hospital",
    "name": "Hakim Sana Ullah Specialist Hospital and Cancer Center",
    "source": "OpenGovernmentData"
  }
},
{
  "type": "node",
  "id": 6911122306,
  "lat": 32.5434115,
  "lon": 75.1473655,
  "tags": {
    "addr:district": "Jammu",
    "addr:full": "National Highway, 1-A Diani, Samba",
    "addr:postcode": "184121",
    "addr:state": "Jammu and Kashmir",
    "amenity": "hospital",
    "name": "Kristu Jyoti Hospital",
    "operator:type": "private",
    "source": "OpenGovernmentData",
    "website": "www.kritujyotisamba.com"
  }
},
{
  "type": "node",
  "id": 6911122319,
  "lat": 32.7047465,
  "lon": 74.8603463,
  "tags": {
    "addr:district": "Jammu",
    "addr:full": "Gandhi Nagar",
    "addr:postcode": "180004",
    "addr:state": "Jammu and Kashmir",
    "amenity": "hospital",
    "name": "District Hospital Gandhi Nagar",
    "source": "OpenGovernmentData"
  }
},
{
  "type": "node",
  "id": 6911122324,
  "lat": 32.6557485,
  "lon": 74.8333928,
  "tags": {
    "addr:district": "Jammu",
    "addr:full": "Rohi Morh, Satwari- R.S. Pura Road",
    "addr:postcode": "180001",
    "addr:state": "Jammu and Kashmir",
    "amenity": "hospital",
    "name": "Sudan Heart Care Centre",
    "source": "OpenGovernmentData"
  }
},
{
  "type": "node",
  "id": 6911122339,
  "lat": 34.0835723,
  "lon": 74.8207194,
  "tags": {
    "addr:district": "Srinagar",
    "addr:full": "Khayam Road, Srinagar, Kashmir(Near Ikhwan Chowk)",
    "addr:postcode": "190001",
    "addr:state": "Jammu and Kashmir",
    "amenity": "hospital",
    "name": "Al-Aziz Hospital",
    "source": "OpenGovernmentData"
  }
},
{
  "type": "node",
  "id": 6911122344,
  "lat": 34.0612131,
  "lon": 74.7842541,
  "tags": {
    "addr:district": "Srinagar",
    "addr:full": "Tengpore Bye Pass, NH 1A",
    "addr:postcode": "190010",
    "addr:state": "Jammu and Kashmir",
    "amenity": "hospital",
    "check_date": "2024-05-11",
    "name": "The New City Hospital",
    "source": "OpenGovernmentData"
  }
},
{
  "type": "node",
  "id": 6911125796,
  "lat": 32.9338053,
  "lon": 75.1421083,
  "tags": {
    "addr:district": "Udhampur",
    "addr:full": "Housing Colony",
    "addr:postcode": "182101",
    "addr:state": "Jammu and Kashmir",
    "amenity": "hospital",
    "name": "Klsm Rotary Eye and Ent Hospital",
    "source": "OpenGovernmentData"
  }
},
{
  "type": "node",
  "id": 6911125801,
  "lat": 34.0805621,
  "lon": 74.8014919,
  "tags": {
    "addr:district": "Srinagar",
    "addr:full": "Karan Nagar",
    "addr:postcode": "190010",
    "addr:state": "Jammu and Kashmir",
    "amenity": "hospital",
    "name": "Sheikh Ul Alam Hospital",
    "source": "OpenGovernmentData"
  }
},
{
  "type": "node",
  "id": 6911125806,
  "lat": 34.0401871,
  "lon": 74.7890988,
  "tags": {
    "addr:district": "Budgam",
    "addr:full": "Hyderpora, Bye-Pass, Opp Cm's Residence",
    "addr:postcode": "190014",
    "addr:state": "Jammu and Kashmir",
    "amenity": "hospital",
    "name": "Mubarak Hospital",
    "source": "OpenGovernmentData"
  }
},
{
  "type": "node",
  "id": 6911125818,
  "lat": 34.0263103,
  "lon": 74.8202875,
  "tags": {
    "addr:city": "Srinagar",
    "addr:district": "Srinagar",
    "addr:full": "Gulshan Nagar, Byepass, Nowgam",
    "addr:postcode": "190008",
    "addr:state": "Jammu and Kashmir",
    "addr:street": "NH-44, Nowgam Byepass",
    "amenity": "hospital",
    "healthcare": "hospital",
    "name": "Ahmed Hospital and Nursing Homes",
    "source": "OpenGovernmentData"
  }
},
{
  "type": "node",
  "id": 6911125823,
  "lat": 34.0611159,
  "lon": 74.8098242,
  "tags": {
    "addr:district": "Srinagar",
    "addr:full": "Goggi Bagh, Near Amar Singh College",
    "addr:postcode": "190001",
    "addr:state": "Jammu and Kashmir",
    "amenity": "hospital",
    "name": "Ramzan Hospital",
    "source": "OpenGovernmentData"
  }
},
{
  "type": "node",
  "id": 6911125844,
  "lat": 34.0680861,
  "lon": 74.8315756,
  "tags": {
    "addr:district": "Srinagar",
    "addr:full": "Zero Bridge, Raj Bagh",
    "addr:postcode": "190008",
    "addr:state": "Jammu and Kashmir",
    "amenity": "hospital",
    "healthcare": "hospital",
    "name": "Modern Hospital, Srinagar",
    "source": "OpenGovernmentData"
  }
},
{
  "type": "node",
  "id": 6911254740,
  "lat": 33.7344325,
  "lon": 75.1657507,
  "tags": {
    "addr:district": "Anantnag",
    "addr:full": "Sarnal",
    "addr:postcode": "192101",
    "addr:state": "Jammu and Kashmir",
    "amenity": "hospital",
    "name": "Jhon Bishop Memorial Hospital",
    "source": "OpenGovernmentData"
  }
},
{
  "type": "node",
  "id": 6911254745,
  "lat": 34.2929452,
  "lon": 74.4550203,
  "tags": {
    "addr:district": "Baramula",
    "addr:full": "Kfc Complex, New Colony, Sopore",
    "addr:postcode": "193201",
    "addr:state": "Jammu & Kashmir",
    "addr:subdistrict": "Sopore",
    "amenity": "hospital",
    "description": "Sub District hospital",
    "name": "Sopore Sub District Hospital",
    "source": "OpenGovernmentData"
  }
},
{
  "type": "node",
  "id": 6911254780,
  "lat": 32.6339178,
  "lon": 74.9459732,
  "tags": {
    "addr:district": "Jammu",
    "addr:full": "Barjani Talab",
    "addr:postcode": "181133",
    "addr:state": "Jammu and Kashmir",
    "amenity": "hospital",
    "name": "St Josephs Community Hospital",
    "source": "OpenGovernmentData"
  }
},
{
  "type": "node",
  "id": 6911271672,
  "lat": 34.0722109,
  "lon": 74.8384729,
  "tags": {
    "addr:district": "Srinagar",
    "addr:full": "Sonwar",
    "addr:postcode": "190001",
    "addr:state": "Jammu and Kashmir",
    "amenity": "hospital",
    "fax": "2451568",
    "healthcare": "hospital",
    "healthcare:speciality": "urology",
    "name": "Kidney Hospital",
    "source": "OpenGovernmentData"
  }
},
{
  "type": "node",
  "id": 6911271677,
  "lat": 34.0675073,
  "lon": 74.8027821,
  "tags": {
    "addr:district": "Srinagar",
    "addr:full": "Hazuri Bagh",
    "addr:postcode": "190001",
    "addr:state": "Jammu and Kashmir",
    "amenity": "hospital",
    "name": "Tahira Khanams Hospital and Nursing Home",
    "source": "OpenGovernmentData"
  }
},
{
  "type": "node",
  "id": 6911280789,
  "lat": 32.6127449,
  "lon": 74.8567924,
  "tags": {
    "addr:district": "Jammu",
    "addr:full": "Bishnah",
    "addr:postcode": "181132",
    "addr:state": "Jammu and Kashmir",
    "amenity": "hospital",
    "name": "Sub-District Hospital, Bishnah",
    "source": "OpenGovernmentData"
  }
},
{
  "type": "node",
  "id": 6911280798,
  "lat": 32.7431804,
  "lon": 74.8586096,
  "tags": {
    "addr:district": "Jammu",
    "addr:full": "Rehari Chowk, 32, Colony Road, Near Gurowara, Rehari",
    "addr:postcode": "180005",
    "addr:state": "Jammu and Kashmir",
    "amenity": "hospital",
    "name": "S H S Memorial Hospital",
    "operator:type": "private",
    "source": "OpenGovernmentData"
  }
},
{
  "type": "node",
  "id": 6911280808,
  "lat": 32.6991998,
  "lon": 74.9000698,
  "tags": {
    "addr:district": "Jammu",
    "addr:full": "Nh-1, Narwal Bye Pass Road",
    "addr:postcode": "180015",
    "addr:state": "Jammu and Kashmir",
    "amenity": "hospital",
    "name": "Jk Medicity Hospital Pvt Ltd",
    "source": "OpenGovernmentData"
  }
},
{
  "type": "node",
  "id": 6911280818,
  "lat": 32.7428865,
  "lon": 74.8616619,
  "tags": {
    "addr:district": "Jammu",
    "addr:full": "Pathankot Jammu Highway, Bridge No 5, Sujanpur",
    "addr:postcode": "180004",
    "addr:state": "Jammu and Kashmir",
    "amenity": "hospital",
    "name": "Arya Hospital",
    "source": "OpenGovernmentData"
  }
},
{
  "type": "node",
  "id": 6911285686,
  "lat": 34.0473558,
  "lon": 74.8061804,
  "tags": {
    "addr:district": "Budgam",
    "addr:full": "Barzulla , Srinagar",
    "addr:postcode": "190005",
    "addr:state": "Jammu and Kashmir",
    "amenity": "hospital",
    "name": "Bone and Joint Hospital",
    "source": "OpenGovernmentData"
  }
},
{
  "type": "node",
  "id": 6911285697,
  "lat": 34.0688716,
  "lon": 74.8439607,
  "tags": {
    "addr:city": "Srinagar",
    "addr:district": "Srinagar",
    "addr:full": "G.B.Pant Cantonment General Hospital, Sonwar",
    "addr:postcode": "190010",
    "addr:state": "Jammu and Kashmir",
    "addr:street": "Sonwar",
    "amenity": "hospital",
    "emergency": "yes",
    "healthcare": "hospital",
    "healthcare:speciality": "pediatric",
    "name": "G.B. Panth Children Hospital",
    "operator:type": "government",
    "source": "OpenGovernmentData"
  }
},
{
  "type": "node",
  "id": 6911285698,
  "lat": 34.0454156,
  "lon": 74.7891699,
  "tags": {
    "addr:district": "Srinagar",
    "addr:full": "Gulbarg Colony, Hyderpora(Bypass)",
    "addr:postcode": "190015",
    "addr:state": "Jammu and Kashmir",
    "amenity": "hospital",
    "name": "Classic Hospital and Diagnostic Center",
    "source": "OpenGovernmentData"
  }
},
{
  "type": "node",
  "id": 6986550290,
  "lat": 32.5549410,
  "lon": 76.1232698,
  "tags": {
    "addr:district": "Chamba",
    "addr:full": "Near Bus Stand",
    "addr:postcode": "176310",
    "addr:state": "Himachal Pradesh",
    "amenity": "hospital",
    "name": "Sukhmani Hospital, Chamba",
    "source": "OpenGovernmentData"
  }
},
{
  "type": "node",
  "id": 6988130931,
  "lat": 32.4294899,
  "lon": 76.0132335,
  "tags": {
    "addr:block": "Samote",
    "addr:district": "Chamba",
    "addr:full": "Shahpur-Chowari Road, Near Radha Krishna Temple, Chowari",
    "addr:postcode": "176302",
    "addr:state": "Himachal Pradesh",
    "amenity": "hospital",
    "description": "Civil Hospital",
    "name": "Civil Hospital, Chowari",
    "operator:type": "government",
    "pincode": "176302",
    "source": "OpenGovernmentData"
  }
},
{
  "type": "node",
  "id": 6988234519,
  "lat": 32.5312043,
  "lon": 75.9639291,
  "tags": {
    "addr:block": "Samote",
    "addr:district": "Chamba",
    "addr:full": "Subhash Chowk Road, Opp. SDM Court, Dalhousie",
    "addr:postcode": "176304",
    "addr:state": "Himachal Pradesh",
    "amenity": "hospital",
    "contact:phone": "1899242125",
    "description": "Civil Hospital",
    "name": "Civil Hospital, Dalhousi",
    "operator:type": "government",
    "source": "OpenGovernmentData"
  }
},
{
  "type": "node",
  "id": 6988324616,
  "lat": 32.5682040,
  "lon": 76.1206493,
  "tags": {
    "addr:block": "Pukhari",
    "addr:district": "Chamba",
    "addr:full": "Sultanpur-Sarol Road, Near New Balu Bridge, Chamba",
    "addr:postcode": "176312",
    "addr:state": "Himachal Pradesh",
    "amenity": "hospital",
    "contact:phone": "1899225170",
    "description": "District Hospital",
    "health_facility:type": "Ayurveda",
    "name": "District Ayurvedic Hospital, Chamba",
    "operator:type": "government",
    "source": "OpenGovernmentData"
  }
},
{
  "type": "node",
  "id": 6990660867,
  "lat": 32.8336840,
  "lon": 76.1564219,
  "tags": {
    "addr:block": "Tissa",
    "addr:district": "Chamba",
    "addr:full": "Tissa",
    "addr:postcode": "176316",
    "addr:state": "Himachal Pradesh",
    "amenity": "hospital",
    "description": "Civil Hospital",
    "name": "Civil Hospital, Tissa",
    "operator:type": "government",
    "source": "OpenGovernmentData"
  }
},
{
  "type": "node",
  "id": 6990737720,
  "lat": 32.4647815,
  "lon": 75.9228310,
  "tags": {
    "addr:district": "Chamba",
    "addr:full": "Kakira Kamlari",
    "addr:postcode": "176313",
    "addr:state": "Himachal Pradesh",
    "amenity": "hospital",
    "name": "Swami Shri Hari Giri Hospital",
    "source": "OpenGovernmentData"
  }
},
{
  "type": "node",
  "id": 7007152171,
  "lat": 32.5586870,
  "lon": 76.1221057,
  "tags": {
    "addr:district": "Chamba",
    "addr:full": "Chamba",
    "addr:state": "Himachal Pradesh",
    "amenity": "hospital",
    "name": "Regional Hospital, Chamba",
    "operator:type": "government",
    "source": "OpenGovernmentData"
  }
},
{
  "type": "node",
  "id": 7016099611,
  "lat": 32.4416926,
  "lon": 76.5378052,
  "tags": {
    "addr:block": "Bharmaur",
    "addr:district": "Chamba",
    "addr:full": "Main Bazaar, Beside SBI, Bharmour",
    "addr:postcode": "176315",
    "addr:state": "Himachal Pradesh",
    "addr:subdistrict": "Brahmaur",
    "amenity": "hospital",
    "contact:phone": "1899225044",
    "description": "Civil Hospital",
    "name": "Civil Hospital, Bharmour",
    "operator:type": "government",
    "pincode": "176315",
    "source": "OpenGovernmentData"
  }
},
{
  "type": "node",
  "id": 7140654377,
  "lat": 34.2099313,
  "lon": 74.7769273,
  "tags": {
    "addr:district": "Ganderbal",
    "addr:full": "Near Mirani Masjid, Duderhama, Duderhama Ganderbal",
    "addr:postcode": "191201",
    "addr:state": "Jammu & Kashmir",
    "amenity": "hospital",
    "description": "District hospital",
    "name": "District Hospital, Ganderbal",
    "source": "OpenGovernmentData"
  }
},
{
  "type": "node",
  "id": 7140654382,
  "lat": 32.4556939,
  "lon": 75.2692725,
  "tags": {
    "addr:district": "KATHUA",
    "addr:full": "Near Post Office, Hiranagar",
    "addr:postcode": "184142",
    "addr:state": "Jammu & Kashmir",
    "addr:subdistrict": "Hiranagar",
    "amenity": "hospital",
    "description": "Government hospital",
    "name": "Hiranagar",
    "source": "OpenGovernmentData"
  }
},
{
  "type": "node",
  "id": 7140654383,
  "lat": 34.2784884,
  "lon": 74.5674335,
  "tags": {
    "addr:district": "Bandipore",
    "addr:full": "Near AWC Shahgund, Shahgund",
    "addr:postcode": "193501",
    "addr:state": "Jammu & Kashmir",
    "addr:subdistrict": "Sonawari",
    "amenity": "hospital",
    "name": "Government Hospital, Shahgund Sonawari",
    "source": "OpenGovernmentData"
  }
},
{
  "type": "node",
  "id": 7140654387,
  "lat": 34.0132876,
  "lon": 74.9491845,
  "tags": {
    "addr:district": "Pulwama",
    "addr:full": "Munpora Pampore Road",
    "addr:postcode": "192121",
    "addr:state": "Jammu & Kashmir",
    "addr:subdistrict": "Pampore",
    "amenity": "hospital",
    "contact:phone": "1932223712",
    "description": "Government hospital",
    "name": "Konibal",
    "source": "OpenGovernmentData"
  }
},
{
  "type": "node",
  "id": 7140654388,
  "lat": 33.7189169,
  "lon": 75.0838327,
  "tags": {
    "addr:block": "QAIMOH",
    "addr:district": "Kulgam",
    "addr:full": "Near BDO Office",
    "addr:postcode": "192102",
    "addr:state": "Jammu & Kashmir",
    "amenity": "hospital",
    "description": "Sub District hospital",
    "name": "Sub District Hospital, Qaimoh",
    "source": "OpenGovernmentData"
  }
},
{
  "type": "node",
  "id": 7140654394,
  "lat": 33.9568415,
  "lon": 74.7197049,
  "tags": {
    "addr:block": "Khansab",
    "addr:district": "Badgam",
    "addr:full": "Near Bus Stop, Kremshore",
    "addr:postcode": "191113",
    "addr:state": "Jammu & Kashmir",
    "addr:subdistrict": "Khansahib",
    "amenity": "hospital",
    "description": "Sub-District hospital",
    "name": "Sub-District hospital, Kremshore",
    "source": "OpenGovernmentData"
  }
},
{
  "type": "node",
  "id": 7140654397,
  "lat": 33.9329115,
  "lon": 74.6611415,
  "tags": {
    "addr:district": "Badgam",
    "addr:full": "Near Bus-stand Khansahib, Khansahib",
    "addr:postcode": "191111",
    "addr:state": "Jammu & Kashmir",
    "addr:subdistrict": "Khansahib",
    "amenity": "hospital",
    "description": "Sub District hospital",
    "name": "Sub District hospital, Khansahib",
    "source": "OpenGovernmentData"
  }
},
{
  "type": "node",
  "id": 7140654403,
  "lat": 32.7225008,
  "lon": 75.1751392,
  "tags": {
    "addr:district": "Udhampur",
    "addr:full": "Dhar - Udhampur Road",
    "addr:postcode": "182127",
    "addr:state": "Jammu & Kashmir",
    "addr:subdistrict": "Majalta",
    "amenity": "hospital",
    "contact:phone": "1912669113",
    "description": "Government hospital",
    "name": "Majalta",
    "source": "OpenGovernmentData"
  }
},
{
  "type": "node",
  "id": 7140654409,
  "lat": 34.6336787,
  "lon": 74.8299983,
  "tags": {
    "addr:district": "Bandipore",
    "addr:full": "Main Market Dawar",
    "addr:postcode": "193503",
    "addr:state": "Jammu & Kashmir",
    "addr:subdistrict": "Gurez",
    "amenity": "hospital",
    "description": "Sub District hospital",
    "name": "Sub District hospital, Dawar",
    "source": "OpenGovernmentData"
  }
},
{
  "type": "node",
  "id": 7140654414,
  "lat": 33.7091150,
  "lon": 75.0347790,
  "tags": {
    "addr:district": "Kulgam",
    "addr:full": "Tarigam",
    "addr:postcode": "192231",
    "addr:state": "Jammu & Kashmir",
    "amenity": "hospital",
    "description": "Government hospital",
    "name": "TARIGAM",
    "source": "OpenGovernmentData"
  }
},
{
  "type": "node",
  "id": 7140654423,
  "lat": 32.6075167,
  "lon": 74.7334496,
  "tags": {
    "addr:district": "JAMMU",
    "addr:full": "Near Hr.sec.school, R.S.PURA, CHC R.S.Pura",
    "addr:postcode": "181102",
    "addr:state": "Jammu & Kashmir",
    "addr:subdistrict": "Ranbirsinghpora",
    "amenity": "hospital",
    "description": "Sub District hospital",
    "name": "Sub District hospital, R.S.Pura",
    "source": "OpenGovernmentData"
  }
},
{
  "type": "node",
  "id": 7140654425,
  "lat": 33.6105784,
  "lon": 74.9229502,
  "tags": {
    "addr:district": "Kulgam",
    "addr:full": "Damhal Hanji Pora",
    "addr:postcode": "192233",
    "addr:state": "Jammu & Kashmir",
    "addr:subdistrict": "Damhal Hanji Pora",
    "amenity": "hospital",
    "description": "Sub District hospital",
    "name": "Sub District Hospital, Damhal Hanji Pora",
    "source": "OpenGovernmentData"
  }
},
{
  "type": "node",
  "id": 7140654426,
  "lat": 34.1596681,
  "lon": 74.5546264,
  "tags": {
    "addr:district": "Baramula",
    "addr:full": "near main Bazar Pattan, pattan Bazar, Main pattan",
    "addr:postcode": "193121",
    "addr:state": "Jammu & Kashmir",
    "addr:subdistrict": "Pattan",
    "amenity": "hospital",
    "contact:phone": "1954265335",
    "description": "Sub District hospital",
    "name": "Sub District hospital, Pattan",
    "source": "OpenGovernmentData"
  }
},
{
  "type": "node",
  "id": 7140654429,
  "lat": 34.0173360,
  "lon": 74.5888907,
  "tags": {
    "addr:district": "Badgam",
    "addr:full": "Tehsil Office, Beerwah, Banday Mohalla Beerwah",
    "addr:postcode": "193411",
    "addr:state": "Jammu & Kashmir",
    "addr:subdistrict": "Beerwah",
    "amenity": "hospital",
    "contact:phone": "1956244219",
    "description": "District hospital",
    "name": "District hospital, Beerwah",
    "source": "OpenGovernmentData"
  }
},
{
  "type": "node",
  "id": 7140654430,
  "lat": 33.9247372,
  "lon": 75.1206691,
  "tags": {
    "addr:district": "Pulwama",
    "addr:full": "hospital Road, Tral",
    "addr:postcode": "192123",
    "addr:state": "Jammu & Kashmir",
    "addr:subdistrict": "Tral",
    "amenity": "hospital",
    "description": "Sub District hospital",
    "name": "Sub District Hospital, Tral",
    "source": "OpenGovernmentData"
  }
},
{
  "type": "node",
  "id": 7140654434,
  "lat": 34.2850498,
  "lon": 74.4639353,
  "tags": {
    "addr:district": "Baramula",
    "addr:full": "SOPORE",
    "addr:postcode": "193201",
    "addr:state": "Jammu & Kashmir",
    "addr:subdistrict": "Sopore",
    "amenity": "hospital",
    "description": "Govt Pediatric hospital",
    "name": "Government Pediatric Hospital, Sopore",
    "source": "OpenGovernmentData"
  }
},
{
  "type": "node",
  "id": 7140654435,
  "lat": 33.8783600,
  "lon": 74.8999650,
  "tags": {
    "addr:district": "Pulwama",
    "addr:full": "Pulwama Srinagar Road",
    "addr:postcode": "192301",
    "addr:state": "Jammu & Kashmir",
    "amenity": "hospital",
    "contact:phone": "1954265335",
    "description": "District hospital",
    "name": "District Hospital Pulwama",
    "source": "OpenGovernmentData"
  }
},
{
  "type": "node",
  "id": 7140654438,
  "lat": 33.7325215,
  "lon": 74.8566705,
  "tags": {
    "addr:district": "Shopian",
    "addr:full": "Imam Sahib-Bijbehara Road, Shopian, Pinjura",
    "addr:postcode": "192303",
    "addr:state": "Jammu & Kashmir",
    "amenity": "hospital",
    "name": "Pinjura Primary hospital",
    "source": "OpenGovernmentData"
  }
},
{
  "type": "node",
  "id": 7140654440,
  "lat": 33.9428477,
  "lon": 74.7993976,
  "tags": {
    "addr:district": "Badgam",
    "addr:full": "Near BDO Office, Chadoora",
    "addr:postcode": "191113",
    "addr:state": "Jammu & Kashmir",
    "addr:subdistrict": "Chadura",
    "amenity": "hospital",
    "description": "Sub-District hospital",
    "name": "Sub-District hospital, Chadoora",
    "source": "OpenGovernmentData"
  }
},
{
  "type": "node",
  "id": 7140654444,
  "lat": 32.6411178,
  "lon": 75.3356667,
  "tags": {
    "addr:district": "Kathua",
    "addr:full": "Near Panchayat House, Ramkote",
    "addr:postcode": "184205",
    "addr:state": "Jammu & Kashmir",
    "addr:subdistrict": "Billawar",
    "amenity": "hospital",
    "description": "Government Medical hospital",
    "name": "Government Medical hospital Ramkote",
    "source": "OpenGovernmentData"
  }
},
{
  "type": "node",
  "id": 7140654447,
  "lat": 32.5238574,
  "lon": 74.7977832,
  "tags": {
    "addr:district": "Jammu",
    "addr:full": "near school, Bishnah",
    "addr:postcode": "181131",
    "addr:state": "Jammu & Kashmir",
    "addr:subdistrict": "Bishnah",
    "amenity": "hospital",
    "healthcare": "hospital",
    "healthcare:speciality": "general",
    "name": "Primary Health Centre",
    "operator": "GOVT",
    "operator:type": "government",
    "source": "OpenGovernmentData"
  }
},
{
  "type": "node",
  "id": 7140654452,
  "lat": 33.6982602,
  "lon": 75.2867092,
  "tags": {
    "addr:district": "Anantnag",
    "addr:full": "Near Bus Stand, Shangus",
    "addr:postcode": "192202",
    "addr:state": "Jammu & Kashmir",
    "addr:subdistrict": "Shangus",
    "amenity": "hospital",
    "description": "Sub District hospital",
    "name": "Sub District hospital, Shangus",
    "source": "OpenGovernmentData"
  }
},
{
  "type": "node",
  "id": 7165541952,
  "lat": 32.3261529,
  "lon": 76.5577852,
  "tags": {
    "addr:block": "Bharmaur",
    "addr:district": "Chamba",
    "addr:full": "Near HPSEB Sub Station, Kuleth, Hinsa",
    "addr:postcode": "176309",
    "addr:state": "Himachal Pradesh",
    "addr:subdistrict": "Brahmaur",
    "amenity": "hospital",
    "name": "Government Hospital, Holi",
    "source": "OpenGovernmentData"
  }
},
{
  "type": "node",
  "id": 7165541964,
  "lat": 32.5453230,
  "lon": 75.9405768,
  "tags": {
    "addr:block": "Samote",
    "addr:district": "Chamba",
    "addr:full": "Pathankot-Chamba Road, Near NHPC Ed Office, Dalhousie, Banikhet",
    "addr:postcode": "176303",
    "addr:state": "Himachal Pradesh",
    "amenity": "hospital",
    "description": "Civil Hospital",
    "name": "Civil Hospital, Banikhet",
    "source": "OpenGovernmentData"
  }
},
{
  "type": "node",
  "id": 7165541996,
  "lat": 32.4557696,
  "lon": 75.9345389,
  "tags": {
    "addr:block": "Samote",
    "addr:district": "Chamba",
    "addr:full": "Kakira School Road, Near Post Office, Kakira",
    "addr:postcode": "176313",
    "addr:state": "Himachal Pradesh",
    "amenity": "hospital",
    "name": "Government Hospital, Kakira",
    "source": "OpenGovernmentData"
  }
},
{
  "type": "node",
  "id": 7165542027,
  "lat": 32.4786262,
  "lon": 76.2916356,
  "tags": {
    "addr:block": "Choori",
    "addr:district": "Chamba",
    "addr:full": "MDR52, Dharwala, Churi",
    "addr:postcode": "176311",
    "addr:state": "Himachal Pradesh",
    "amenity": "hospital",
    "name": "Hospital, Churi",
    "source": "OpenGovernmentData"
  }
},
{
  "type": "node",
  "id": 7516681113,
  "lat": 34.5295609,
  "lon": 74.2569720,
  "tags": {
    "amenity": "hospital",
    "emergency": "yes",
    "healthcare": "hospital",
    "healthcare:speciality": "general",
    "name": "Kupwara District Hospital"
  }
},
{
  "type": "node",
  "id": 7530503383,
  "lat": 32.4104521,
  "lon": 74.1228777,
  "tags": {
    "amenity": "hospital",
    "healthcare": "hospital",
    "healthcare:speciality": "cardiology;emergency",
    "name": "Wazirabad Institute of Cardiology"
  }
},
{
  "type": "node",
  "id": 7533914114,
  "lat": 32.4432581,
  "lon": 74.1135323,
  "tags": {
    "amenity": "hospital",
    "healthcare": "hospital",
    "name": "Civil Hospital"
  }
},
{
  "type": "node",
  "id": 7637726848,
  "lat": 32.7413773,
  "lon": 76.6340673,
  "tags": {
    "addr:district": "Lahaul and Spiti",
    "addr:full": "Margaraon",
    "addr:postcode": "175142",
    "addr:state": "Himachal Pradesh",
    "amenity": "hospital",
    "name": "Lady Wellington Hospital",
    "source": "Local Knowledge"
  }
},
{
  "type": "node",
  "id": 7637726853,
  "lat": 32.5642672,
  "lon": 76.1137162,
  "tags": {
    "addr:district": "Chamba",
    "addr:full": "Sultanpur - Sarol Road, Chowgan Mohalla, Chamba",
    "addr:postcode": "176312",
    "addr:state": "Himachal Pradesh",
    "amenity": "hospital",
    "name": "Rana Hospital",
    "source": "Local Knowledge"
  }
},
{
  "type": "node",
  "id": 7637726857,
  "lat": 32.5541530,
  "lon": 75.9500090,
  "tags": {
    "addr:district": "Chamba",
    "addr:full": "Vaikunth Nagar, Banikhet",
    "addr:postcode": "176303",
    "addr:state": "Himachal Pradesh",
    "amenity": "hospital",
    "name": "Ashirwad Hospital",
    "source": "Local Knowledge"
  }
},
{
  "type": "node",
  "id": 7637726862,
  "lat": 32.7253958,
  "lon": 76.0906670,
  "tags": {
    "addr:district": "Chamba",
    "addr:full": "Surangani",
    "addr:postcode": "176317",
    "addr:state": "Himachal Pradesh",
    "amenity": "hospital",
    "name": "NHPC Hospital",
    "source": "Local Knowledge"
  }
},
{
  "type": "node",
  "id": 7637726864,
  "lat": 32.5389060,
  "lon": 75.9877860,
  "tags": {
    "addr:district": "Chamba",
    "addr:full": "Dhupguri, Dalhousie",
    "addr:postcode": "176304",
    "addr:state": "Himachal Pradesh",
    "amenity": "hospital",
    "name": "Arpana Charitable Hospital",
    "source": "Local Knowledge"
  }
},
{
  "type": "node",
  "id": 7637726878,
  "lat": 32.6048378,
  "lon": 75.9115836,
  "tags": {
    "addr:district": "Chamba",
    "addr:full": "Samleu Uperla",
    "addr:postcode": "176325",
    "addr:state": "Himachal Pradesh",
    "amenity": "hospital",
    "name": "NHPC Hospital",
    "source": "Local Knowledge"
  }
},
{
  "type": "node",
  "id": 7637784305,
  "lat": 32.3001020,
  "lon": 75.8852720,
  "tags": {
    "addr:district": "Nurpur",
    "addr:full": "Nurpur",
    "addr:postcode": "176202",
    "addr:state": "Himachal Pradesh",
    "amenity": "hospital",
    "name": "Nurpur Hospital",
    "source": "Local Knowledge"
  }
},
{
  "type": "node",
  "id": 7668544075,
  "lat": 34.2639199,
  "lon": 74.7952302,
  "tags": {
    "addr:district": "Ganderbal",
    "addr:full": "Wayul, Srinagar - Ladakh Highway, Ganderbal Sonamarg Road, Ganderbal",
    "addr:postcode": "191201",
    "addr:state": "Jammu & Kashmir",
    "amenity": "hospital",
    "name": "Government Maternity Hospital",
    "source": "Local Knowledge"
  }
},
{
  "type": "node",
  "id": 7668544081,
  "lat": 34.4071818,
  "lon": 74.2918058,
  "tags": {
    "addr:district": "Kupwara",
    "addr:full": "Handwara",
    "addr:postcode": "193221",
    "addr:state": "Jammu & Kashmir",
    "amenity": "hospital",
    "name": "North Kashmir Nursing Home & Hospital",
    "source": "Local Knowledge"
  }
},
{
  "type": "node",
  "id": 7668544083,
  "lat": 34.0632306,
  "lon": 74.4265609,
  "tags": {
    "addr:district": "Baramulla",
    "addr:full": "Hospital Road, Tangmarg",
    "addr:postcode": "193402",
    "addr:state": "Jammu & Kashmir",
    "amenity": "hospital",
    "name": "Sub District Hospital",
    "source": "Local Knowledge"
  }
},
{
  "type": "node",
  "id": 7668544086,
  "lat": 34.4508037,
  "lon": 74.0770902,
  "tags": {
    "addr:district": "Kupwara",
    "addr:full": "Hafthrada",
    "addr:postcode": "193224",
    "addr:state": "Jammu & Kashmir",
    "amenity": "hospital",
    "emergency": "no",
    "healthcare": "hospital",
    "healthcare:speciality": "general",
    "name": "Govt. Hospital Hafthrada",
    "source": "Local Knowledge"
  }
},
{
  "type": "node",
  "id": 7668544087,
  "lat": 34.1992227,
  "lon": 74.6598968,
  "tags": {
    "addr:district": "Bandipora",
    "addr:full": "Bandipora-Srinagar Road",
    "addr:postcode": "193501",
    "addr:state": "Jammu & Kashmir",
    "amenity": "hospital",
    "name": "Kashmir Tibbia College Hospital & Research Centre",
    "source": "Local Knowledge"
  }
},
{
  "type": "node",
  "id": 7668544088,
  "lat": 34.2845140,
  "lon": 74.4645890,
  "tags": {
    "addr:district": "Baramulla",
    "addr:full": "Hadipora Main Road, Sopore",
    "addr:postcode": "193201",
    "addr:state": "Jammu & Kashmir",
    "amenity": "hospital",
    "name": "Tuberculosis Hospital",
    "source": "Local Knowledge"
  }
},
{
  "type": "node",
  "id": 7668544089,
  "lat": 34.4114140,
  "lon": 74.2298888,
  "tags": {
    "addr:district": "Kupwara",
    "addr:full": "Bramri",
    "addr:postcode": "193221",
    "addr:state": "Jammu & Kashmir",
    "amenity": "hospital",
    "name": "Quality Healthcare Hospital",
    "source": "Local Knowledge"
  }
},
{
  "type": "node",
  "id": 7668544092,
  "lat": 34.1160246,
  "lon": 74.4340471,
  "tags": {
    "addr:district": "Baramulla",
    "addr:full": "Hoom Khaipora Road",
    "addr:postcode": "193402",
    "addr:state": "Jammu & Kashmir",
    "amenity": "hospital",
    "name": "Public Health Centre",
    "source": "Local Knowledge"
  }
},
{
  "type": "node",
  "id": 7668544094,
  "lat": 34.3634117,
  "lon": 74.4246553,
  "tags": {
    "addr:district": "Baramulla",
    "addr:full": "Bomai Zaingeer",
    "addr:postcode": "193201",
    "addr:state": "Jammu & Kashmir",
    "amenity": "hospital",
    "name": "Brath Hospital",
    "source": "Local Knowledge"
  }
},
{
  "type": "node",
  "id": 7668544095,
  "lat": 34.4703925,
  "lon": 74.1182063,
  "tags": {
    "addr:district": "Kupwara",
    "addr:full": "Hundi",
    "addr:postcode": "193224",
    "addr:state": "Jammu & Kashmir",
    "amenity": "hospital",
    "name": "Government Hospital",
    "source": "Local Knowledge"
  }
},
{
  "type": "node",
  "id": 7668544097,
  "lat": 34.1747530,
  "lon": 74.5425080,
  "tags": {
    "addr:district": "Baramulla",
    "addr:full": "Baramulla Srinagar National Highway, Palhallan, Pattan",
    "addr:postcode": "193121",
    "addr:state": "Jammu & Kashmir",
    "amenity": "hospital",
    "name": "MM Hospital",
    "source": "Local Knowledge"
  }
},
{
  "type": "node",
  "id": 7668544098,
  "lat": 34.2890603,
  "lon": 74.4579190,
  "tags": {
    "addr:district": "Baramulla",
    "addr:full": "New Colony, Sopore",
    "addr:postcode": "193201",
    "addr:state": "Jammu & Kashmir",
    "amenity": "hospital",
    "name": "M.M. Hospital",
    "source": "Local Knowledge"
  }
},
{
  "type": "node",
  "id": 7668544099,
  "lat": 34.3548510,
  "lon": 74.2324540,
  "tags": {
    "addr:district": "Kupwara",
    "addr:full": "Qalmabad",
    "addr:postcode": "193221",
    "addr:state": "Jammu & Kashmir",
    "amenity": "hospital",
    "name": "Qalamabad Hospital",
    "source": "Local Knowledge"
  }
},
{
  "type": "node",
  "id": 7668544104,
  "lat": 34.3593462,
  "lon": 74.4204197,
  "tags": {
    "addr:district": "Baramulla",
    "addr:full": "Amin Chowk, Bomai",
    "addr:postcode": "193201",
    "addr:state": "Jammu & Kashmir",
    "amenity": "hospital",
    "name": "Bomai Hospital",
    "source": "Local Knowledge"
  }
},
{
  "type": "node",
  "id": 7668544105,
  "lat": 34.4776190,
  "lon": 74.1511020,
  "tags": {
    "addr:district": "Kupwara",
    "addr:full": "Villgam",
    "addr:postcode": "193224",
    "addr:state": "Jammu & Kashmir",
    "amenity": "hospital",
    "name": "Government Hospital",
    "source": "Local Knowledge"
  }
},
{
  "type": "node",
  "id": 7668544106,
  "lat": 34.2480138,
  "lon": 74.5800329,
  "tags": {
    "addr:district": "Bandipora",
    "addr:full": "Srinagar - Sumbal Road, Naidkhai",
    "addr:postcode": "193501",
    "addr:state": "Jammu & Kashmir",
    "amenity": "hospital",
    "name": "Hospital, Naidkhai",
    "source": "Local Knowledge"
  }
},
{
  "type": "node",
  "id": 7668544107,
  "lat": 34.1870160,
  "lon": 74.5271120,
  "tags": {
    "addr:district": "Baramulla",
    "addr:full": "Baramulla - Srinagar Road, Khambiyar",
    "addr:postcode": "193121",
    "addr:state": "Jammu & Kashmir",
    "amenity": "hospital",
    "name": "Sahara Hospital",
    "source": "Local Knowledge"
  }
},
{
  "type": "node",
  "id": 7668544108,
  "lat": 34.2909210,
  "lon": 74.4592560,
  "tags": {
    "addr:district": "Baramulla",
    "addr:full": "New Colony, Sopore",
    "addr:postcode": "193201",
    "addr:state": "Jammu & Kashmir",
    "amenity": "hospital",
    "name": "Guru Multispeciality Hospital",
    "source": "Local Knowledge"
  }
},
{
  "type": "node",
  "id": 7668544110,
  "lat": 34.2086900,
  "lon": 74.3439830,
  "tags": {
    "addr:postcode": "193101",
    "amenity": "hospital",
    "healthcare": "hospital",
    "name": "District Maternity and Children Hospital",
    "name:ur": "ڈسٹرکٹ میٹرنٹی اور چلڈرن ہسپتال"
  }
},
{
  "type": "node",
  "id": 7668544115,
  "lat": 34.5133350,
  "lon": 74.1709810,
  "tags": {
    "addr:district": "Kupwara",
    "addr:full": "Kupwara-Kralpora Road,Trehgam",
    "addr:postcode": "193224",
    "addr:state": "Jammu & Kashmir",
    "amenity": "hospital",
    "check_date": "2025-10-07",
    "name": "Government Hospital",
    "source": "Local Knowledge"
  }
},
{
  "type": "node",
  "id": 7668544116,
  "lat": 34.3741321,
  "lon": 74.6810961,
  "tags": {
    "addr:district": "Bandipora",
    "addr:full": "Bandipora-Srinagar Road, Aragam",
    "addr:postcode": "193502",
    "addr:state": "Jammu & Kashmir",
    "amenity": "hospital",
    "name": "Government Hospital",
    "source": "Local Knowledge"
  }
},
{
  "type": "node",
  "id": 7668544121,
  "lat": 34.2624955,
  "lon": 74.9018597,
  "tags": {
    "addr:district": "Ganderbal",
    "addr:full": "Kangan",
    "addr:postcode": "191202",
    "addr:state": "Jammu & Kashmir",
    "amenity": "hospital",
    "name": "Kangan Trauma Hospital",
    "source": "Local Knowledge"
  }
},
{
  "type": "node",
  "id": 7668544126,
  "lat": 34.1501736,
  "lon": 74.6155221,
  "tags": {
    "addr:district": "Baramulla",
    "addr:full": "Singhpora",
    "addr:postcode": "193121",
    "addr:state": "Jammu & Kashmir",
    "amenity": "hospital",
    "name": "Government Health Centre",
    "source": "Local Knowledge"
  }
},
{
  "type": "node",
  "id": 7668544129,
  "lat": 34.2023137,
  "lon": 74.3646610,
  "tags": {
    "addr:postcode": "193101",
    "amenity": "hospital",
    "healthcare": "hospital",
    "name": "Masjid Sharief Hospital",
    "name:ur": "مسجد شریف ہسپتال"
  }
},
{
  "type": "node",
  "id": 7668544131,
  "lat": 34.2623747,
  "lon": 74.9023888,
  "tags": {
    "addr:district": "Ganderbal",
    "addr:full": "Kangan",
    "addr:postcode": "191202",
    "addr:state": "Jammu & Kashmir",
    "amenity": "hospital",
    "name": "Mother and Child Care Hospital",
    "source": "Local Knowledge"
  }
},
{
  "type": "node",
  "id": 7668544132,
  "lat": 34.3176530,
  "lon": 74.3718150,
  "tags": {
    "addr:district": "Baramulla",
    "addr:full": "Watergam, Ladoora Rafiabad",
    "addr:postcode": "193303",
    "addr:state": "Jammu & Kashmir",
    "amenity": "hospital",
    "name": "Trauma Hospital",
    "source": "Local Knowledge"
  }
},
{
  "type": "node",
  "id": 7668544133,
  "lat": 34.1402980,
  "lon": 74.8380970,
  "tags": {
    "addr:district": "Srinagar",
    "addr:full": "Dargah Road, Nasim Bagh, Srinagar",
    "addr:postcode": "190006",
    "addr:state": "Jammu & Kashmir",
    "amenity": "hospital",
    "name": "Unani Hospital",
    "source": "Local Knowledge"
  }
},
{
  "type": "node",
  "id": 7668544134,
  "lat": 34.5262469,
  "lon": 74.2545495,
  "tags": {
    "addr:district": "Kupwara",
    "addr:full": "Regipora 1, Kupwara",
    "addr:postcode": "193222",
    "addr:state": "Jammu & Kashmir",
    "amenity": "hospital",
    "name": "Unani Panchkarma Hospital",
    "source": "Local Knowledge"
  }
},
{
  "type": "node",
  "id": 7668544135,
  "lat": 34.4182511,
  "lon": 74.6428078,
  "tags": {
    "addr:postcode": "193502",
    "amenity": "hospital",
    "healthcare": "hospital",
    "name": "District Hospital",
    "name:ur": "ضلعی ہسپتال"
  }
},
{
  "type": "node",
  "id": 7668544136,
  "lat": 34.1314541,
  "lon": 74.6689746,
  "tags": {
    "addr:district": "Baramulla",
    "addr:full": "Alaie Complex, Mirgund Srinagar-Baramulla",
    "addr:postcode": "193121",
    "addr:state": "Jammu & Kashmir",
    "amenity": "hospital",
    "name": "Alaie Hospital",
    "source": "Local Knowledge"
  }
},
{
  "type": "node",
  "id": 7668544138,
  "lat": 34.3284580,
  "lon": 74.4857950,
  "tags": {
    "addr:district": "Baramulla",
    "addr:full": "Sopore - Bandipora Road, Warpora",
    "addr:postcode": "193201",
    "addr:state": "Jammu & Kashmir",
    "amenity": "hospital",
    "name": "Government Health Centre",
    "source": "Local Knowledge"
  }
},
{
  "type": "node",
  "id": 7668544139,
  "lat": 34.2446428,
  "lon": 74.3800579,
  "tags": {
    "addr:district": "Baramulla",
    "addr:full": "Chakloo",
    "addr:postcode": "193301",
    "addr:state": "Jammu & Kashmir",
    "amenity": "hospital",
    "name": "Government Hospital",
    "source": "Local Knowledge"
  }
},
{
  "type": "node",
  "id": 7668544141,
  "lat": 34.5251704,
  "lon": 74.2537464,
  "tags": {
    "addr:district": "Kupwara",
    "addr:full": "Kupwara",
    "addr:postcode": "193222",
    "addr:state": "Jammu & Kashmir",
    "amenity": "hospital",
    "name": "Ess Bee Hospital",
    "source": "Local Knowledge"
  }
},
{
  "type": "node",
  "id": 7668544142,
  "lat": 34.3180152,
  "lon": 74.3717768,
  "tags": {
    "addr:district": "Baramulla",
    "addr:full": "Watergam, Ladoora Rafiabad",
    "addr:postcode": "193303",
    "addr:state": "Jammu & Kashmir",
    "amenity": "hospital",
    "name": "Sub Hospital",
    "source": "Local Knowledge"
  }
},
{
  "type": "node",
  "id": 7668544145,
  "lat": 34.4327701,
  "lon": 74.6117649,
  "tags": {
    "addr:district": "Bandipora",
    "addr:full": "Onagam",
    "addr:postcode": "193502",
    "addr:state": "Jammu & Kashmir",
    "amenity": "hospital",
    "name": "Unani Hospital",
    "source": "Local Knowledge"
  }
},
{
  "type": "node",
  "id": 7668544146,
  "lat": 34.2215450,
  "lon": 75.0158650,
  "tags": {
    "addr:district": "Ganderbal",
    "addr:full": "Srinagar - Ladakh Road",
    "addr:postcode": "191202",
    "addr:state": "Jammu & Kashmir",
    "amenity": "hospital",
    "name": "Government Hospital",
    "source": "Local Knowledge"
  }
},
{
  "type": "node",
  "id": 7668544150,
  "lat": 34.0945399,
  "lon": 74.5915451,
  "tags": {
    "addr:district": "Baramulla",
    "addr:full": "Hanjiwera Magam Road, Magam",
    "addr:postcode": "193401",
    "addr:state": "Jammu & Kashmir",
    "amenity": "hospital",
    "name": "Sub District Hospital",
    "source": "Local Knowledge"
  }
},
{
  "type": "node",
  "id": 7668544152,
  "lat": 34.0780092,
  "lon": 74.0568786,
  "tags": {
    "addr:district": "Bandipora",
    "addr:full": "Bandipora",
    "addr:postcode": "193123",
    "addr:state": "Jammu & Kashmir",
    "amenity": "hospital",
    "name": "Sub District Hospital",
    "source": "Local Knowledge"
  }
},
{
  "type": "node",
  "id": 7668544155,
  "lat": 34.3962534,
  "lon": 74.2838200,
  "tags": {
    "addr:district": "Kupwara",
    "addr:full": "Banday Mohalla, Handwara",
    "addr:postcode": "193221",
    "addr:state": "Jammu & Kashmir",
    "amenity": "hospital",
    "name": "Child Care Hospital",
    "source": "Local Knowledge"
  }
},
{
  "type": "node",
  "id": 7668544158,
  "lat": 34.2170280,
  "lon": 74.7731054,
  "tags": {
    "addr:district": "Ganderbal",
    "addr:full": "Ganderbal",
    "addr:postcode": "191201",
    "addr:state": "Jammu & Kashmir",
    "amenity": "hospital",
    "name": "Meeran Memorial Hospital",
    "source": "Local Knowledge"
  }
},
{
  "type": "node",
  "id": 7668544161,
  "lat": 34.3958470,
  "lon": 73.8629600,
  "tags": {
    "addr:district": "Kupwara",
    "addr:full": "Tangdhar",
    "addr:postcode": "193225",
    "addr:state": "Jammu & Kashmir",
    "amenity": "hospital",
    "name": "Sub District Hospital",
    "source": "Local Knowledge"
  }
},
{
  "type": "node",
  "id": 7668544162,
  "lat": 34.2566698,
  "lon": 75.4137597,
  "tags": {
    "addr:district": "Ganderbal",
    "addr:full": "Baltal",
    "addr:postcode": "191203",
    "addr:state": "Jammu & Kashmir",
    "amenity": "hospital",
    "healthcare": "hospital",
    "name": "Base Camp Hospital",
    "source": "Local Knowledge"
  }
},
{
  "type": "node",
  "id": 7668785762,
  "lat": 34.0718670,
  "lon": 74.8048938,
  "tags": {
    "addr:district": "Srinagar",
    "addr:full": "Shaheed Gunj, Srinagar",
    "addr:postcode": "190009",
    "addr:state": "Jammu & Kashmir",
    "amenity": "hospital",
    "name": "Max Superspeciality Hospital",
    "source": "Local Knowledge"
  }
},
{
  "type": "node",
  "id": 7668785764,
  "lat": 34.0776354,
  "lon": 74.7951303,
  "tags": {
    "addr:district": "Srinagar",
    "addr:full": "Qamarwari - Batamaloo Road, Batamaloo, Srinagar",
    "addr:postcode": "190010",
    "addr:state": "Jammu & Kashmir",
    "amenity": "hospital",
    "check_date": "2022-10-18",
    "name": "Haya Unani Hospital",
    "operator:type": "private",
    "source": "Local Knowledge"
  }
},
{
  "type": "node",
  "id": 7668785765,
  "lat": 34.1153904,
  "lon": 74.8273085,
  "tags": {
    "addr:district": "Srinagar",
    "addr:full": "Lal Bazar, Srinagar",
    "addr:postcode": "190006",
    "addr:state": "Jammu & Kashmir",
    "amenity": "hospital",
    "healthcare": "hospital",
    "name": "Leprosy Hospital",
    "source": "Local Knowledge"
  }
},
{
  "type": "node",
  "id": 7668785774,
  "lat": 34.0453020,
  "lon": 74.7330190,
  "tags": {
    "addr:district": "Budgam",
    "addr:full": "Dooru",
    "addr:postcode": "191111",
    "addr:state": "Jammu & Kashmir",
    "amenity": "hospital",
    "name": "New Sub District Hospital",
    "source": "Local Knowledge"
  }
},
{
  "type": "node",
  "id": 7668785779,
  "lat": 34.1081709,
  "lon": 74.7475541,
  "tags": {
    "addr:district": "Budgam",
    "addr:full": "Shalateng, Srinagar",
    "addr:postcode": "190017",
    "addr:state": "Jammu & Kashmir",
    "amenity": "hospital",
    "name": "Government Unani Hospital Shalteng",
    "source": "Local Knowledge"
  }
},
{
  "type": "node",
  "id": 7668785790,
  "lat": 34.0665920,
  "lon": 74.8032810,
  "tags": {
    "addr:district": "Budgam",
    "addr:full": "Shergarhi, Batmaloo, Srinagar",
    "addr:postcode": "190009",
    "addr:state": "Jammu & Kashmir",
    "amenity": "hospital",
    "name": "T.K. Hospital",
    "source": "Local Knowledge"
  }
},
{
  "type": "node",
  "id": 7668785794,
  "lat": 34.0844806,
  "lon": 74.8395070,
  "tags": {
    "addr:district": "Srinagar",
    "addr:full": "Gagribal, Srinagar",
    "addr:postcode": "190001",
    "addr:state": "Jammu & Kashmir",
    "amenity": "hospital",
    "healthcare": "hospital",
    "name": "Government Health Centre",
    "source": "Local Knowledge"
  }
},
{
  "type": "node",
  "id": 7668785795,
  "lat": 34.1172529,
  "lon": 74.6992567,
  "tags": {
    "addr:district": "Budgam",
    "addr:full": "Lawaypora Road, Lawaypora, Srinagar",
    "addr:postcode": "190017",
    "addr:state": "Jammu & Kashmir",
    "amenity": "hospital",
    "name": "Trauma Hospital",
    "source": "Local Knowledge"
  }
},
{
  "type": "node",
  "id": 7668785796,
  "lat": 34.0165299,
  "lon": 74.7209884,
  "tags": {
    "addr:district": "Budgam",
    "addr:full": "Zabarpora",
    "addr:postcode": "191111",
    "addr:state": "Jammu & Kashmir",
    "amenity": "hospital",
    "name": "CMO Hospital",
    "source": "Local Knowledge"
  }
},
{
  "type": "node",
  "id": 7668785804,
  "lat": 34.0519580,
  "lon": 74.8323270,
  "tags": {
    "addr:district": "Budgam",
    "addr:full": "Padshahi Bagh, Chowk, Srinagar",
    "addr:postcode": "190008",
    "addr:state": "Jammu & Kashmir",
    "amenity": "hospital",
    "name": "Abdullah Hospital",
    "source": "Local Knowledge"
  }
},
{
  "type": "node",
  "id": 7668785818,
  "lat": 34.1394307,
  "lon": 74.8023864,
  "tags": {
    "addr:district": "Srinagar",
    "addr:full": "Soura, Srinagar",
    "addr:postcode": "190011",
    "addr:state": "Jammu & Kashmir",
    "amenity": "hospital",
    "healthcare": "hospital",
    "name": "Departments of Community Medicines and Obstetrics/Gyanaecology Maternity Hospital Soura",
    "source": "Local Knowledge"
  }
},
{
  "type": "node",
  "id": 7668785829,
  "lat": 34.1122578,
  "lon": 74.7255374,
  "tags": {
    "addr:city": "Srinagar",
    "addr:district": "Srinagar",
    "addr:full": "Ummer Abad, Srinagar",
    "addr:postcode": "190012",
    "addr:state": "Jammu & Kashmir",
    "addr:street": "NH-1, Umer Abad, Zainakote",
    "amenity": "hospital",
    "healthcare": "hospital",
    "healthcare:speciality": "general",
    "name": "Noora Hospital",
    "source": "Local Knowledge"
  }
},
{
  "type": "node",
  "id": 7668785830,
  "lat": 34.0293596,
  "lon": 74.8210826,
  "tags": {
    "addr:district": "Budgam",
    "addr:full": "Nowgam, Srinagar",
    "addr:postcode": "190015",
    "addr:state": "Jammu & Kashmir",
    "amenity": "hospital",
    "name": "Anganwadi Hospital",
    "source": "Local Knowledge"
  }
},
{
  "type": "node",
  "id": 7668785831,
  "lat": 34.0743407,
  "lon": 74.7876544,
  "tags": {
    "addr:district": "Budgam",
    "addr:full": "Batmaloo, Srinagar",
    "addr:postcode": "190009",
    "addr:state": "Jammu & Kashmir",
    "amenity": "hospital",
    "name": "Dr. Farooq's Unani Hospital",
    "source": "Local Knowledge"
  }
},
{
  "type": "node",
  "id": 7668785843,
  "lat": 34.1437202,
  "lon": 74.8089313,
  "tags": {
    "addr:district": "Srinagar",
    "addr:full": "Upper Soura, Buchpora, Srinagar",
    "addr:postcode": "190020",
    "addr:state": "Jammu & Kashmir",
    "addr:street": "90ft Road",
    "amenity": "hospital",
    "healthcare": "hospital",
    "name": "Safa Marwah Hospital"
  }
},
{
  "type": "node",
  "id": 7668785847,
  "lat": 33.8637905,
  "lon": 74.7714082,
  "tags": {
    "addr:district": "Budgam",
    "addr:full": "Gulshan Abad",
    "addr:postcode": "191112",
    "addr:state": "Jammu & Kashmir",
    "amenity": "hospital",
    "name": "Government Sub District Hospital",
    "source": "Local Knowledge"
  }
},
{
  "type": "node",
  "id": 7668785851,
  "lat": 34.0896907,
  "lon": 74.7780692,
  "tags": {
    "addr:district": "Srinagar",
    "addr:full": "Tulip Star Complex, Qamarwari, Srinagar",
    "addr:postcode": "190010",
    "addr:state": "Jammu & Kashmir",
    "amenity": "hospital",
    "healthcare": "hospital",
    "name": "ASG Eye Hospital",
    "source": "Local Knowledge"
  }
},
{
  "type": "node",
  "id": 7668785852,
  "lat": 34.0741928,
  "lon": 74.7878000,
  "tags": {
    "addr:district": "Budgam",
    "addr:full": "Dyarwani, Batmaloo, Srinagar",
    "addr:postcode": "190009",
    "addr:state": "Jammu & Kashmir",
    "amenity": "hospital",
    "name": "Albarq Multi Speciality Hospital",
    "source": "Local Knowledge"
  }
},
{
  "type": "node",
  "id": 7668785860,
  "lat": 34.0957666,
  "lon": 74.7922262,
  "tags": {
    "addr:district": "Srinagar",
    "addr:full": "Sekidaffar - Eidgah Road, Srinagar",
    "addr:postcode": "190002",
    "addr:state": "Jammu & Kashmir",
    "amenity": "hospital",
    "name": "Dr. Naseer's Unani & Panchkarma Hospital",
    "source": "Local Knowledge"
  }
},
{
  "type": "node",
  "id": 7668785863,
  "lat": 34.0343449,
  "lon": 74.8077751,
  "tags": {
    "addr:district": "Budgam",
    "addr:full": "Chanpora, Srinagar",
    "addr:postcode": "190015",
    "addr:state": "Jammu & Kashmir",
    "amenity": "hospital",
    "name": "New Government Hospital",
    "source": "Local Knowledge"
  }
},
{
  "type": "node",
  "id": 7668785864,
  "lat": 34.0289178,
  "lon": 74.8002873,
  "tags": {
    "addr:city": "Srinagar",
    "addr:district": "Budgam",
    "addr:full": "Rawalpora Colony, Srinagar",
    "addr:postcode": "190005",
    "addr:state": "Jammu & Kashmir",
    "addr:street": "NH-44, Sanatnagar",
    "amenity": "hospital",
    "healthcare": "hospital",
    "name": "Star Hospitals",
    "source": "Local Knowledge"
  }
},
{
  "type": "node",
  "id": 7668785867,
  "lat": 34.0520158,
  "lon": 74.7973587,
  "tags": {
    "addr:district": "Budgam",
    "addr:full": "Barzulla, Ram Bagh, Srinagar",
    "addr:postcode": "190005",
    "addr:state": "Jammu & Kashmir",
    "amenity": "hospital",
    "name": "Government Bone & Joint Hospital",
    "source": "Local Knowledge"
  }
},
{
  "type": "node",
  "id": 7668785869,
  "lat": 34.0363094,
  "lon": 74.7355722,
  "tags": {
    "addr:district": "Budgam",
    "addr:full": "Ompura Kharanja Road",
    "addr:postcode": "191111",
    "addr:state": "Jammu & Kashmir",
    "amenity": "hospital",
    "name": "IBN Sina Hospital",
    "source": "Local Knowledge"
  }
},
{
  "type": "node",
  "id": 7668961110,
  "lat": 33.7720319,
  "lon": 75.1420890,
  "tags": {
    "addr:district": "Anantnag",
    "addr:full": "Veeri",
    "addr:postcode": "192124",
    "addr:state": "Jammu & Kashmir",
    "amenity": "hospital",
    "name": "Government Hospital",
    "source": "Local Knowledge"
  }
},
{
  "type": "node",
  "id": 7668961112,
  "lat": 33.7307053,
  "lon": 75.1534493,
  "tags": {
    "addr:district": "Anantnag",
    "addr:full": "Sher Bagh Road, Sheer Pora",
    "addr:postcode": "192101",
    "addr:state": "Jammu & Kashmir",
    "amenity": "hospital",
    "check_date": "2025-06-29",
    "name": "Maternity Hospital",
    "source": "Local Knowledge"
  }
},
{
  "type": "node",
  "id": 7668961114,
  "lat": 33.7100160,
  "lon": 75.1515304,
  "tags": {
    "addr:district": "Anantnag",
    "addr:full": "Gousia Colony, Ashajipora",
    "addr:postcode": "192210",
    "addr:state": "Jammu & Kashmir",
    "amenity": "hospital",
    "name": "Gousia Nursing Home",
    "source": "Local Knowledge"
  }
},
{
  "type": "node",
  "id": 7668961115,
  "lat": 33.3093870,
  "lon": 75.7739402,
  "tags": {
    "addr:district": "Kishtwar",
    "addr:full": "Akhyar Abad",
    "addr:postcode": "182204",
    "addr:state": "Jammu & Kashmir",
    "amenity": "hospital",
    "name": "Chenab Hospital",
    "source": "Local Knowledge"
  }
},
{
  "type": "node",
  "id": 7668961117,
  "lat": 33.7265230,
  "lon": 75.1523061,
  "tags": {
    "addr:district": "Anantnag",
    "addr:full": "Jangalat Mandi Chowk, Anantnag Kishtwar Highway",
    "addr:postcode": "192122",
    "addr:state": "Jammu & Kashmir",
    "amenity": "hospital",
    "name": "Al Hayat Maternity Laparoscopy Hospital",
    "source": "Local Knowledge"
  }
},
{
  "type": "node",
  "id": 7668961120,
  "lat": 33.6859800,
  "lon": 75.2222538,
  "tags": {
    "addr:district": "Anantnag",
    "addr:full": "Achabal",
    "addr:postcode": "192201",
    "addr:state": "Jammu & Kashmir",
    "amenity": "hospital",
    "name": "Achabal Hospital",
    "source": "Local Knowledge"
  }
},
{
  "type": "node",
  "id": 7668961123,
  "lat": 33.6584390,
  "lon": 75.0902415,
  "tags": {
    "addr:district": "Kulgam",
    "addr:full": "Kelam Road, Kadoorah",
    "addr:postcode": "192231",
    "addr:state": "Jammu & Kashmir",
    "amenity": "hospital",
    "name": "Nijam Memorial Hospital",
    "source": "Local Knowledge"
  }
},
{
  "type": "node",
  "id": 7668961126,
  "lat": 33.5729894,
  "lon": 75.2223760,
  "tags": {
    "addr:district": "Anantnag",
    "addr:full": "Dooru, Verinag Anantnag Road, Doru Shahabad",
    "addr:postcode": "192211",
    "addr:state": "Jammu & Kashmir",
    "amenity": "hospital",
    "name": "Sub District Hospital",
    "source": "Local Knowledge"
  }
},
{
  "type": "node",
  "id": 7668961129,
  "lat": 33.8264019,
  "lon": 74.9917139,
  "tags": {
    "addr:district": "Pulwama",
    "addr:full": "Wasoora",
    "addr:postcode": "192305",
    "addr:state": "Jammu & Kashmir",
    "amenity": "hospital",
    "name": "Government Primary Hospital",
    "source": "Local Knowledge"
  }
},
{
  "type": "node",
  "id": 7668961132,
  "lat": 33.7933074,
  "lon": 75.1024507,
  "tags": {
    "addr:district": "Anantnag",
    "addr:full": "Bijbehara",
    "addr:postcode": "192124",
    "addr:state": "Jammu & Kashmir",
    "amenity": "hospital",
    "name": "Sub District Hospital",
    "source": "Local Knowledge"
  }
},
{
  "type": "node",
  "id": 7668961133,
  "lat": 33.7162210,
  "lon": 74.8282340,
  "tags": {
    "addr:district": "Shopian",
    "addr:full": "Shopain",
    "addr:postcode": "192303",
    "addr:state": "Jammu & Kashmir",
    "amenity": "hospital",
    "name": "Dr. Naseer's Unani and Panchkarma Hospital",
    "source": "Local Knowledge"
  }
},
{
  "type": "node",
  "id": 7668961134,
  "lat": 33.7973408,
  "lon": 75.0958533,
  "tags": {
    "addr:district": "Anantnag",
    "addr:full": "Srinagar - Kanyakumari Highway, Bijbehara",
    "addr:postcode": "192124",
    "addr:state": "Jammu & Kashmir",
    "amenity": "hospital",
    "name": "New Sin District Hospital",
    "source": "Local Knowledge"
  }
},
{
  "type": "node",
  "id": 7668961136,
  "lat": 33.7895060,
  "lon": 75.2439016,
  "tags": {
    "addr:district": "Anantnag",
    "addr:full": "Opp. SBI, Seer Hamdan",
    "addr:postcode": "192129",
    "addr:state": "Jammu & Kashmir",
    "amenity": "hospital",
    "name": "Sub District Hospital",
    "source": "Local Knowledge"
  }
},
{
  "type": "node",
  "id": 7668961138,
  "lat": 33.7245060,
  "lon": 75.1508940,
  "tags": {
    "addr:district": "Anantnag",
    "addr:full": "Janglat Mandi",
    "addr:postcode": "192101",
    "addr:state": "Jammu & Kashmir",
    "amenity": "hospital",
    "name": "Thyphoid Hospital",
    "source": "Local Knowledge"
  }
},
{
  "type": "node",
  "id": 7668961139,
  "lat": 33.5985500,
  "lon": 75.1607690,
  "tags": {
    "addr:district": "Anantnag",
    "addr:full": "Kuri Gam, Kulgam, Srinagar Jammu Highway, Qazigund",
    "addr:postcode": "192221",
    "addr:state": "Jammu & Kashmir",
    "amenity": "hospital",
    "name": "J and K Government Hospital",
    "source": "Local Knowledge"
  }
},
{
  "type": "node",
  "id": 7668961141,
  "lat": 33.3188920,
  "lon": 75.7600700,
  "tags": {
    "addr:district": "Kishtwar",
    "addr:full": "Kishtwar",
    "addr:postcode": "182204",
    "addr:state": "Jammu & Kashmir",
    "amenity": "hospital",
    "name": "Government Tuberculosis Hospital",
    "source": "Local Knowledge"
  }
},
{
  "type": "node",
  "id": 7668961143,
  "lat": 33.7285160,
  "lon": 75.1509760,
  "tags": {
    "addr:city": "Anantnag",
    "addr:city:ur": "اننت ناگ",
    "addr:postcode": "192101",
    "addr:street": "خواجہ رزاق روڈ",
    "addr:street:ur": "خواجہ رزاق روڈ",
    "amenity": "hospital",
    "healthcare": "hospital",
    "name": "Life Care Hospital",
    "name:ur": "لائف کیئر ہسپتال"
  }
},
{
  "type": "node",
  "id": 7668961145,
  "lat": 33.3117862,
  "lon": 75.7659660,
  "tags": {
    "addr:district": "Kishtwar",
    "addr:full": "Indra Nagar",
    "addr:postcode": "182204",
    "addr:state": "Jammu & Kashmir",
    "amenity": "hospital",
    "name": "DTC Hospital",
    "source": "Local Knowledge"
  }
},
{
  "type": "node",
  "id": 7668961149,
  "lat": 33.4899758,
  "lon": 75.8543014,
  "tags": {
    "addr:district": "Kishtwar",
    "addr:full": "Suid Dachhan, Ikhala Road",
    "addr:postcode": "182204",
    "addr:state": "Jammu & Kashmir",
    "amenity": "hospital",
    "name": "Government Hospital",
    "source": "Local Knowledge"
  }
},
{
  "type": "node",
  "id": 7668961151,
  "lat": 33.7453600,
  "lon": 75.1855770,
  "tags": {
    "addr:district": "Anantnag",
    "addr:full": "KP Road, Gulshanabad",
    "addr:postcode": "192101",
    "addr:state": "Jammu & Kashmir",
    "amenity": "hospital",
    "name": "The SKJ Hospital",
    "source": "Local Knowledge"
  }
},
{
  "type": "node",
  "id": 7668961153,
  "lat": 33.6580550,
  "lon": 75.0897964,
  "tags": {
    "addr:district": "Kulgam",
    "addr:full": "Kelam, Agru",
    "addr:state": "Jammu & Kashmir",
    "amenity": "hospital"
  }
},
{
  "type": "node",
  "id": 7668961161,
  "lat": 33.7390552,
  "lon": 75.1671142,
  "tags": {
    "addr:district": "Anantnag",
    "addr:full": "Rehmat Alam Building, Gulshanabad, Sarnal",
    "addr:postcode": "192101",
    "addr:state": "Jammu & Kashmir",
    "amenity": "hospital",
    "name": "Rahmat-E-Aalam Hospital",
    "source": "Local Knowledge"
  }
},
{
  "type": "node",
  "id": 7668961168,
  "lat": 33.7301769,
  "lon": 75.1499883,
  "tags": {
    "addr:district": "Anantnag",
    "addr:full": "Anantnag Kishtwar Highway",
    "addr:postcode": "192122",
    "addr:state": "Jammu & Kashmir",
    "amenity": "hospital",
    "name": "Unani and Panchakarma Hospital",
    "source": "Local Knowledge"
  }
},
{
  "type": "node",
  "id": 7668961169,
  "lat": 33.4772825,
  "lon": 75.9145534,
  "tags": {
    "addr:district": "Kishtwar",
    "addr:full": "Kibber Nallah Road",
    "addr:postcode": "182205",
    "addr:state": "Jammu & Kashmir",
    "amenity": "hospital",
    "name": "Government Hosiptal",
    "source": "Local Knowledge"
  }
},
{
  "type": "node",
  "id": 7668961170,
  "lat": 33.7391852,
  "lon": 75.1736276,
  "tags": {
    "addr:district": "Anantnag",
    "addr:full": "KP Road, Iqbal Abad, Anantnag",
    "addr:postcode": "192101",
    "addr:state": "Jammu & Kashmir",
    "amenity": "hospital",
    "name": "Jasco Nursing Home",
    "source": "Local Knowledge"
  }
},
{
  "type": "node",
  "id": 7668961171,
  "lat": 33.5877690,
  "lon": 75.2995260,
  "tags": {
    "addr:district": "Anantnag",
    "addr:full": "Kokernag",
    "addr:postcode": "192202",
    "addr:state": "Jammu & Kashmir",
    "amenity": "hospital",
    "name": "Sub District Hospital",
    "source": "Local Knowledge"
  }
},
{
  "type": "node",
  "id": 7668961173,
  "lat": 33.0297410,
  "lon": 75.9132270,
  "tags": {
    "addr:district": "Doda",
    "addr:full": "Gandoh Neeli Bhalessa",
    "addr:postcode": "182203",
    "addr:state": "Jammu & Kashmir",
    "amenity": "hospital",
    "name": "Sub District Hospital",
    "source": "Local Knowledge"
  }
},
{
  "type": "node",
  "id": 7668961174,
  "lat": 32.9944120,
  "lon": 75.6977162,
  "tags": {
    "addr:district": "Doda",
    "addr:full": "Forest Block Doda",
    "addr:postcode": "182222",
    "addr:state": "Jammu & Kashmir",
    "amenity": "hospital",
    "name": "New Sub District Hospital",
    "source": "Local Knowledge"
  }
},
{
  "type": "node",
  "id": 7668961175,
  "lat": 33.5869048,
  "lon": 74.9719430,
  "tags": {
    "addr:district": "Kulgam",
    "addr:full": "Kulgam",
    "addr:postcode": "192233",
    "addr:state": "Jammu & Kashmir",
    "amenity": "hospital",
    "name": "Unani Hospital",
    "source": "Local Knowledge"
  }
},
{
  "type": "node",
  "id": 7668961179,
  "lat": 33.6490939,
  "lon": 75.7053657,
  "tags": {
    "addr:district": "Kishtwar",
    "addr:full": "Marwa",
    "addr:postcode": "182204",
    "addr:state": "Jammu & Kashmir",
    "amenity": "hospital",
    "name": "Nowpachi Hospital",
    "source": "Local Knowledge"
  }
},
{
  "type": "node",
  "id": 7668961180,
  "lat": 33.6782160,
  "lon": 75.1071270,
  "tags": {
    "addr:district": "Kulgam",
    "addr:full": "Mir Bazaar - Akhrani Road",
    "addr:postcode": "192101",
    "addr:state": "Jammu & Kashmir",
    "amenity": "hospital",
    "name": "Government Hospital",
    "source": "Local Knowledge"
  }
},
{
  "type": "node",
  "id": 7668961181,
  "lat": 33.6499452,
  "lon": 75.1617237,
  "tags": {
    "addr:district": "Anantnag",
    "addr:full": "Larkipora - Fatehpora Road, Fatehpora",
    "addr:postcode": "192214",
    "addr:state": "Jammu & Kashmir",
    "amenity": "hospital",
    "name": "Sub Hospital",
    "source": "Local Knowledge"
  }
},
{
  "type": "node",
  "id": 7668961182,
  "lat": 33.7055624,
  "lon": 75.1534215,
  "tags": {
    "addr:district": "Anantnag",
    "addr:full": "Mominabad, Ashajipora",
    "addr:postcode": "192101",
    "addr:state": "Jammu & Kashmir",
    "amenity": "hospital",
    "name": "Wani Hospital",
    "source": "Local Knowledge"
  }
},
{
  "type": "node",
  "id": 7668961184,
  "lat": 33.7363880,
  "lon": 75.3089320,
  "tags": {
    "addr:district": "Anantnag",
    "addr:full": "Deethu",
    "addr:postcode": "192201",
    "addr:state": "Jammu & Kashmir",
    "amenity": "hospital",
    "name": "Government Hospital",
    "source": "Local Knowledge"
  }
},
{
  "type": "node",
  "id": 7668961186,
  "lat": 33.7245840,
  "lon": 75.0181850,
  "tags": {
    "addr:district": "Kulgam",
    "addr:full": "Balsoo Yaipora Road, Yaripora",
    "addr:postcode": "192232",
    "addr:state": "Jammu & Kashmir",
    "amenity": "hospital",
    "name": "Sub District Hospital",
    "source": "Local Knowledge"
  }
},
{
  "type": "node",
  "id": 7668961187,
  "lat": 33.7170278,
  "lon": 74.8359984,
  "tags": {
    "addr:district": "Shopian",
    "addr:full": "Keller Hospital, Therian, Shopian",
    "addr:postcode": "192303",
    "addr:state": "Jammu & Kashmir",
    "amenity": "hospital",
    "name": "Sub District Hospital",
    "source": "Local Knowledge"
  }
},
{
  "type": "node",
  "id": 7668961188,
  "lat": 33.1414050,
  "lon": 75.5831290,
  "tags": {
    "addr:district": "Doda",
    "addr:full": "Ghat",
    "addr:postcode": "182202",
    "addr:state": "Jammu & Kashmir",
    "amenity": "hospital",
    "name": "Government Medical College and Hospital",
    "source": "Local Knowledge"
  }
},
{
  "type": "node",
  "id": 7668961192,
  "lat": 33.6451809,
  "lon": 75.0184153,
  "tags": {
    "addr:district": "Kulgam",
    "addr:full": "Wanpoh-Kulgam Road, Kulgam",
    "addr:postcode": "192231",
    "addr:state": "Jammu & Kashmir",
    "amenity": "hospital",
    "name": "Unani Hospital",
    "source": "Local Knowledge"
  }
},
{
  "type": "node",
  "id": 7668961193,
  "lat": 34.0123308,
  "lon": 75.3175330,
  "tags": {
    "addr:district": "Anantnag",
    "addr:full": "Chandanwari, Pahalgam",
    "addr:postcode": "192126",
    "addr:state": "Jammu & Kashmir",
    "amenity": "hospital",
    "name": "Civil Hospital",
    "source": "Local Knowledge"
  }
},
{
  "type": "node",
  "id": 7668961194,
  "lat": 33.8195204,
  "lon": 75.0627379,
  "tags": {
    "addr:district": "Anantnag",
    "addr:full": "Naina, Pulwama",
    "addr:postcode": "192305",
    "addr:state": "Jammu & Kashmir",
    "amenity": "hospital",
    "name": "Naina Hospital",
    "source": "Local Knowledge"
  }
},
{
  "type": "node",
  "id": 7668961195,
  "lat": 33.6893560,
  "lon": 75.0258900,
  "tags": {
    "addr:district": "Kulgam",
    "addr:full": "Bugam",
    "addr:postcode": "192231",
    "addr:state": "Jammu & Kashmir",
    "amenity": "hospital",
    "description": "Subcentre",
    "healthcare": "centre",
    "name": "Government PHC Bugam",
    "source": "Local Knowledge"
  }
},
{
  "type": "node",
  "id": 7669142093,
  "lat": 32.6607490,
  "lon": 75.4077520,
  "tags": {
    "addr:district": "Kathua",
    "addr:full": "Lakhrri",
    "addr:postcode": "184203",
    "addr:state": "Jammu & Kashmir",
    "amenity": "hospital",
    "name": "Drab General Hospital",
    "source": "Local Knowledge"
  }
},
{
  "type": "node",
  "id": 7669142096,
  "lat": 32.9196324,
  "lon": 75.1341432,
  "tags": {
    "addr:district": "Udhampur",
    "addr:full": "Adarsh Colony, Udhampur",
    "addr:postcode": "182101",
    "addr:state": "Jammu & Kashmir",
    "amenity": "hospital",
    "name": "Trikunta Nursing Home",
    "source": "Local Knowledge"
  }
},
{
  "type": "node",
  "id": 7669142101,
  "lat": 33.0963403,
  "lon": 74.8445340,
  "tags": {
    "addr:district": "Reasi",
    "addr:full": "Reasi",
    "addr:postcode": "182312",
    "addr:state": "Jammu & Kashmir",
    "amenity": "hospital",
    "name": "District Hospital",
    "source": "Local Knowledge"
  }
},
{
  "type": "node",
  "id": 7669142103,
  "lat": 32.3684658,
  "lon": 75.5217060,
  "tags": {
    "addr:district": "Kathua",
    "addr:full": "Urliwand",
    "addr:postcode": "184101",
    "addr:state": "Jammu & Kashmir",
    "amenity": "hospital",
    "name": "Mahatma Gandhi Civil Hospital",
    "name:etymology:wikidata": "Q1001",
    "source": "Local Knowledge"
  }
},
{
  "type": "node",
  "id": 7669142106,
  "lat": 33.1180530,
  "lon": 75.3258420,
  "tags": {
    "addr:district": "Ramban",
    "addr:full": "Doda Road, Batote",
    "addr:postcode": "182143",
    "addr:state": "Jammu & Kashmir",
    "amenity": "hospital",
    "name": "Accidental Hospital",
    "source": "Local Knowledge"
  }
},
{
  "type": "node",
  "id": 7669142111,
  "lat": 33.2626865,
  "lon": 74.9981232,
  "tags": {
    "addr:district": "Reasi",
    "addr:full": "Gool",
    "addr:postcode": "182144",
    "addr:state": "Jammu & Kashmir",
    "amenity": "hospital",
    "name": "Government Hospital",
    "source": "Local Knowledge"
  }
},
{
  "type": "node",
  "id": 7669142112,
  "lat": 33.6490690,
  "lon": 74.2568520,
  "tags": {
    "addr:district": "Poonch",
    "addr:full": "Surankot Poonch Road",
    "addr:postcode": "185121",
    "addr:state": "Jammu & Kashmir",
    "amenity": "hospital",
    "name": "Pir Panchal Hospital",
    "source": "Local Knowledge"
  }
},
{
  "type": "node",
  "id": 7669142113,
  "lat": 33.7721615,
  "lon": 74.0966586,
  "tags": {
    "addr:district": "Poonch",
    "addr:full": "Poonch",
    "addr:postcode": "185101",
    "addr:state": "Jammu & Kashmir",
    "amenity": "hospital",
    "name": "TB Hospital",
    "source": "Local Knowledge"
  }
},
{
  "type": "node",
  "id": 7669142117,
  "lat": 32.5119843,
  "lon": 75.8032069,
  "tags": {
    "addr:district": "Kathua",
    "addr:full": "Basoli",
    "addr:postcode": "184201",
    "addr:state": "Jammu & Kashmir",
    "amenity": "hospital",
    "name": "Sub District Hospital",
    "source": "Local Knowledge"
  }
},
{
  "type": "node",
  "id": 7669142120,
  "lat": 32.9233147,
  "lon": 75.1324442,
  "tags": {
    "addr:district": "Udhampur",
    "addr:full": "Udhampur",
    "addr:postcode": "182101",
    "addr:state": "Jammu & Kashmir",
    "amenity": "hospital",
    "name": "Nagar Hospital",
    "source": "Local Knowledge"
  }
},
{
  "type": "node",
  "id": 7669142123,
  "lat": 32.7729617,
  "lon": 75.7975392,
  "tags": {
    "addr:district": "Kathua",
    "addr:full": "Lawang",
    "addr:postcode": "184206",
    "addr:state": "Jammu & Kashmir",
    "amenity": "hospital",
    "name": "Government Hospital",
    "source": "Local Knowledge"
  }
},
{
  "type": "node",
  "id": 7669142124,
  "lat": 33.4395426,
  "lon": 75.1979751,
  "tags": {
    "addr:district": "Ramban",
    "addr:full": "Banihal",
    "addr:postcode": "182146",
    "addr:state": "Jammu & Kashmir",
    "amenity": "hospital",
    "name": "Government Accidental Hospital",
    "source": "Local Knowledge"
  }
},
{
  "type": "node",
  "id": 7669142127,
  "lat": 32.6610575,
  "lon": 75.4078113,
  "tags": {
    "addr:district": "Kathua",
    "addr:full": "Lakhrri",
    "addr:postcode": "184203",
    "addr:state": "Jammu & Kashmir",
    "amenity": "hospital",
    "name": "Drab General Hospital",
    "source": "Local Knowledge"
  }
},
{
  "type": "node",
  "id": 7669142129,
  "lat": 32.4554076,
  "lon": 75.2692311,
  "tags": {
    "addr:district": "Kathua",
    "addr:full": "Hiranagar",
    "addr:postcode": "184142",
    "addr:state": "Jammu & Kashmir",
    "amenity": "hospital",
    "name": "Sub District Hospital",
    "source": "Local Knowledge"
  }
},
{
  "type": "node",
  "id": 7669142131,
  "lat": 33.6361296,
  "lon": 74.2644714,
  "tags": {
    "addr:district": "Poonch",
    "addr:full": "Surankote Draba Road, Surankot",
    "addr:postcode": "185211",
    "addr:state": "Jammu & Kashmir",
    "amenity": "hospital",
    "name": "Sub District Hospital",
    "source": "Local Knowledge"
  }
},
{
  "type": "node",
  "id": 7669142136,
  "lat": 33.6948710,
  "lon": 74.2880090,
  "tags": {
    "addr:district": "Poonch",
    "addr:full": "Behind Morhote Bus Station, Marhote",
    "addr:postcode": "185121",
    "addr:state": "Jammu & Kashmir",
    "amenity": "hospital",
    "name": "Government Hospital",
    "source": "Local Knowledge"
  }
},
{
  "type": "node",
  "id": 7669142142,
  "lat": 32.3976714,
  "lon": 75.5104666,
  "tags": {
    "addr:district": "Kathua",
    "addr:full": "Kalibari",
    "addr:postcode": "184104",
    "addr:state": "Jammu & Kashmir",
    "amenity": "hospital",
    "name": "A.K.Gupta Hospital and Reserch Centre",
    "source": "Local Knowledge"
  }
},
{
  "type": "node",
  "id": 7669142143,
  "lat": 32.3718590,
  "lon": 75.5273830,
  "tags": {
    "addr:district": "Kathua",
    "addr:full": "Urliwand, Kathua",
    "addr:postcode": "184101",
    "addr:state": "Jammu & Kashmir",
    "amenity": "hospital",
    "name": "Jasrotia Super Speciality Hospital",
    "source": "Local Knowledge"
  }
},
{
  "type": "node",
  "id": 7669142147,
  "lat": 32.3750730,
  "lon": 75.5573430,
  "tags": {
    "addr:district": "Kathua",
    "addr:full": "Kathua",
    "addr:postcode": "184102",
    "addr:state": "Jammu & Kashmir",
    "amenity": "hospital",
    "name": "Government District Hospital",
    "source": "Local Knowledge"
  }
},
{
  "type": "node",
  "id": 7669142151,
  "lat": 33.7970100,
  "lon": 74.2550841,
  "tags": {
    "addr:district": "Poonch",
    "addr:full": "Mandi",
    "addr:postcode": "185102",
    "addr:state": "Jammu & Kashmir",
    "amenity": "hospital",
    "name": "Sub District Hospital",
    "source": "Local Knowledge"
  }
},
{
  "type": "node",
  "id": 7669142152,
  "lat": 32.9918160,
  "lon": 74.9366040,
  "tags": {
    "addr:district": "Reasi",
    "addr:full": "Katra",
    "addr:postcode": "182320",
    "addr:state": "Jammu & Kashmir",
    "amenity": "hospital",
    "name": "Government Sub District Hospital",
    "source": "Local Knowledge"
  }
},
{
  "type": "node",
  "id": 7669142156,
  "lat": 33.7472399,
  "lon": 74.1552780,
  "tags": {
    "addr:district": "Poonch",
    "addr:full": "Khanetar",
    "addr:postcode": "185101",
    "addr:state": "Jammu & Kashmir",
    "amenity": "hospital",
    "name": "Government Ayurvedic Hospital",
    "source": "Local Knowledge"
  }
},
{
  "type": "node",
  "id": 7669142158,
  "lat": 33.6046770,
  "lon": 74.1408540,
  "tags": {
    "addr:district": "Poonch",
    "addr:full": "Mendhar",
    "addr:postcode": "185211",
    "addr:state": "Jammu & Kashmir",
    "amenity": "hospital",
    "name": "Government Sub District Hospital",
    "source": "Local Knowledge"
  }
},