{
  "version": 0.6,
  "generator": "Overpass API 0.7.62.8 e802775f",
  "osm3s": {
    "timestamp_osm_base": "2025-11-30T12:35:19Z",
    "copyright": "The data included in this document is from www.openstreetmap.org. The data is made available under ODbL."
  },
  "elements": [

{
  "type": "node",
  "id": 1410289625,
  "lat": 23.0907842,
  "lon": 86.9560942,
  "tags": {
    "addr:district": "Bankura",
    "addr:full": "Gunnath Primary School, Brajarajpur",
    "addr:postcode": "722121",
    "addr:state": "West Bengal",
    "addr:subdistrict": "Indpur",
    "amenity": "hospital",
    "description": "Primary Health Centre",
    "emergency": "no",
    "healthcare": "centre",
    "name": "Gunnath PHC",
    "source": "OpenGovernmentData",
    "wikidata": "Q61442273"
  }
},
{
  "type": "node",
  "id": 1467951643,
  "lat": 22.3410222,
  "lon": 87.3035662,
  "tags": {
    "amenity": "hospital",
    "healthcare": "hospital",
    "name": "TB HOSPITAL"
  }
},
{
  "type": "node",
  "id": 1471137964,
  "lat": 22.3166763,
  "lon": 87.3004378,
  "tags": {
    "alt_name": "B C Roy Technology Hospital",
    "amenity": "hospital",
    "emergency": "yes",
    "healthcare": "hospital",
    "name": "Bidhan Chandra Roy Technology Hospital",
    "name:etymology:wikidata": "Q2901773"
  }
},
{
  "type": "node",
  "id": 1753170163,
  "lat": 22.4205420,
  "lon": 87.3218592,
  "tags": {
    "amenity": "hospital",
    "healthcare": "hospital"
  }
},
{
  "type": "node",
  "id": 2108702032,
  "lat": 22.8076052,
  "lon": 86.1817547,
  "tags": {
    "amenity": "hospital",
    "emergency": "no",
    "name": "Loyola Free Clinic"
  }
},
{
  "type": "node",
  "id": 2419810969,
  "lat": 23.3498788,
  "lon": 85.3300172,
  "tags": {
    "amenity": "hospital",
    "name": "Guru Nanak Hospital",
    "name:sat": "ᱜᱩᱨᱩ ᱱᱟᱱᱚᱠ ᱦᱟᱥᱯᱟᱛᱟᱞ"
  }
},
{
  "type": "node",
  "id": 2426797210,
  "lat": 23.0549149,
  "lon": 85.2848754,
  "tags": {
    "amenity": "hospital",
    "name": "Khunti Government Hospital"
  }
},
{
  "type": "node",
  "id": 2623539155,
  "lat": 23.7128039,
  "lon": 86.8769296,
  "tags": {
    "amenity": "hospital",
    "emergency": "yes",
    "name": "Dr. Kalyan"
  }
},
{
  "type": "node",
  "id": 2910348514,
  "lat": 23.3791108,
  "lon": 85.3246278,
  "tags": {
    "amenity": "hospital",
    "name": "dental hospital"
  }
},
{
  "type": "node",
  "id": 3307268806,
  "lat": 23.5154119,
  "lon": 87.2656454,
  "tags": {
    "addr:city": "Durgapur",
    "addr:postcode": "713215",
    "addr:street": "Angadpur",
    "amenity": "hospital",
    "name": "Matri Sadan"
  }
},
{
  "type": "node",
  "id": 3499808391,
  "lat": 22.8011423,
  "lon": 86.1814155,
  "tags": {
    "addr:district": "East Singhbhum",
    "addr:full": "Jamshedpur",
    "addr:postcode": "831001",
    "addr:state": "Jharkhand",
    "amenity": "hospital",
    "name": "Tata Main Hospital",
    "source": "OpenGovernmentData"
  }
},
{
  "type": "node",
  "id": 3585016399,
  "lat": 23.3797308,
  "lon": 85.3285143,
  "tags": {
    "amenity": "hospital",
    "name": "Kripal Darshan",
    "name:sat": "ᱠᱨᱤᱯᱟᱞ ᱫᱚᱨᱥᱷᱚᱱ"
  }
},
{
  "type": "node",
  "id": 3585031094,
  "lat": 23.3761979,
  "lon": 85.3328128,
  "tags": {
    "amenity": "hospital",
    "name": "New mediciner"
  }
},
{
  "type": "node",
  "id": 3678313106,
  "lat": 22.8040431,
  "lon": 86.2025846,
  "tags": {
    "addr:city": "jamshedpur",
    "addr:street": "main road sakchi",
    "amenity": "hospital",
    "name": "eye hospital",
    "phone": "06572432203"
  }
},
{
  "type": "node",
  "id": 3681626477,
  "lat": 22.8256765,
  "lon": 86.1331011,
  "tags": {
    "addr:city": "jamshedpur",
    "addr:housenumber": "chhota gamharia",
    "addr:postcode": "832108",
    "addr:street": "tata kandra road",
    "amenity": "hospital",
    "name": "nursing home"
  }
},
{
  "type": "node",
  "id": 3681630422,
  "lat": 22.7585375,
  "lon": 86.2010948,
  "tags": {
    "addr:district": "Purbi Singhbhum",
    "addr:full": "Jamshedpur, Khasmahal",
    "addr:postcode": "831002",
    "addr:state": "Jharkhand",
    "addr:subdistrict": "Golmuri-Cum-Jugsalai",
    "amenity": "hospital",
    "check_date": "2024-06-22",
    "name": "Railway School",
    "source": "OpenGovernmentData"
  }
},
{
  "type": "node",
  "id": 3702727074,
  "lat": 22.7869972,
  "lon": 86.1777241,
  "tags": {
    "addr:city": "Jamshedpur",
    "addr:postcode": "831001",
    "amenity": "hospital",
    "emergency": "yes",
    "operator": "Medica Super Speciality"
  }
},
{
  "type": "node",
  "id": 3920273527,
  "lat": 24.7366042,
  "lon": 85.0432321,
  "tags": {
    "amenity": "hospital"
  }
},
{
  "type": "node",
  "id": 3965247726,
  "lat": 24.6967871,
  "lon": 84.9802141,
  "tags": {
    "amenity": "hospital",
    "healthcare": "hospital",
    "name": "Bhuripalo Hospital",
    "phone": "+919955819322"
  }
},
{
  "type": "node",
  "id": 4241711741,
  "lat": 23.4113868,
  "lon": 85.2336127,
  "tags": {
    "addr:city": "Ratu,Kathitar chowk,Ranchi",
    "addr:postcode": "835222",
    "amenity": "hospital",
    "name": "Late ilyas azad hospital"
  }
},
{
  "type": "node",
  "id": 4246041122,
  "lat": 23.3758395,
  "lon": 85.3326437,
  "tags": {
    "addr:city": "Ranchi",
    "addr:housenumber": "OPPOSITE RWC ARTS BLOCK",
    "addr:postcode": "834001",
    "addr:street": "Circular Road.",
    "amenity": "hospital",
    "name": "THYRO CARE"
  }
},
{
  "type": "node",
  "id": 4246041123,
  "lat": 23.3759602,
  "lon": 85.3326840,
  "tags": {
    "addr:city": "Ranchi",
    "addr:housenumber": "OPPOSITE TANISQUE SHOWROOM",
    "addr:postcode": "834001",
    "addr:street": "Circular Road.",
    "amenity": "hospital",
    "name": "PEARL SKIN CLINIC"
  }
},
{
  "type": "node",
  "id": 4561065392,
  "lat": 22.8046305,
  "lon": 86.1817114,
  "tags": {
    "amenity": "hospital",
    "name": "Jamshedpur Blood Bank",
    "name:en": "Jamshedpur Blood Bank"
  }
},
{
  "type": "node",
  "id": 4638464717,
  "lat": 23.6465216,
  "lon": 86.8150387,
  "tags": {
    "addr:city": "Sarbari More",
    "addr:postcode": "723121",
    "amenity": "hospital",
    "emergency": "no",
    "healthcare": "hospital",
    "name": "Nibedita Rural Hospital"
  }
},
{
  "type": "node",
  "id": 4639816415,
  "lat": 22.8112819,
  "lon": 86.0919187,
  "tags": {
    "addr:city": "gamharia",
    "addr:postcode": "832108",
    "addr:street": "usha martin road",
    "amenity": "hospital",
    "name": "FPA hospital"
  }
},
{
  "type": "node",
  "id": 4678182789,
  "lat": 23.6579482,
  "lon": 85.5141494,
  "tags": {
    "addr:postcode": "829117",
    "addr:street": "Ranchi Road",
    "amenity": "hospital",
    "email": "contactus.ranchi@medicahospitals.in",
    "name": "Medica Hospital Ramgarh",
    "name:en": "Medica Hospital Ramgarh",
    "opening_hours": "24/7",
    "phone": "7033090333",
    "website": "http://www.medicahospital.in"
  }
},
{
  "type": "node",
  "id": 5024665214,
  "lat": 23.5230593,
  "lon": 87.3394818,
  "tags": {
    "addr:district": "Bardhaman",
    "addr:full": "Dr.Zakir Hussain Avenue ,Bidhannagar, Durgapur",
    "addr:postcode": "713212",
    "addr:state": "West Bengal",
    "amenity": "hospital",
    "healthcare": "hospital",
    "healthcare:speciality": "general",
    "name": "Vivekananda Hospital",
    "operator": "Private",
    "operator:type": "private",
    "source": "OpenGovernmentData",
    "website": "https://vivekanandahospital.com/"
  }
},
{
  "type": "node",
  "id": 5266847681,
  "lat": 23.8002444,
  "lon": 86.4313187,
  "tags": {
    "amenity": "hospital",
    "healthcare": "hospital",
    "military": "hospital",
    "name": "ECHS Polyclinic",
    "name:en": "ECHS Polyclinic",
    "name:hi": "ECHS पॉलीक्लिनिक"
  }
},
{
  "type": "node",
  "id": 5852920403,
  "lat": 23.4275163,
  "lon": 85.4120774,
  "tags": {
    "addr:city": "Ranchi",
    "addr:postcode": "835217",
    "addr:street": "BIT Mesra",
    "amenity": "hospital",
    "emergency": "no",
    "healthcare": "hospital",
    "healthcare:speciality": "clinic;general",
    "name": "Mesra Medical hall",
    "name:sat": "ᱢᱮᱥᱨᱟ ᱢᱮᱰᱤᱠᱟ.ᱞ ᱦᱟᱸᱞ"
  }
},
{
  "type": "node",
  "id": 5855405553,
  "lat": 23.3753524,
  "lon": 85.3523023,
  "tags": {
    "addr:city": "ranchi",
    "addr:housenumber": "834001",
    "amenity": "hospital",
    "emergency": "yes",
    "healthcare": "hospital",
    "name": "nirmaya"
  }
},
{
  "type": "node",
  "id": 6022090477,
  "lat": 23.9597653,
  "lon": 85.3649933,
  "tags": {
    "amenity": "hospital",
    "healthcare": "hospital",
    "name": "arogyam hospital"
  }
},
{
  "type": "node",
  "id": 6074035227,
  "lat": 23.6638500,
  "lon": 87.6909188,
  "tags": {
    "addr:district": "Birbhum",
    "addr:full": "Near Bolpur Head Post Office, Bolpur, Bolpur Sriniketan Road",
    "addr:postcode": "731204",
    "addr:state": "West Bengal",
    "addr:subdistrict": "Bolpur Sriniketan",
    "amenity": "hospital",
    "description": "Block Primary Health Centre",
    "healthcare": "hospital",
    "name": "Bolpur Hospital",
    "name:bn": "বোলপুর হাসপাতাল",
    "source": "OpenGovernmentData"
  }
},
{
  "type": "node",
  "id": 6235433846,
  "lat": 23.3351634,
  "lon": 85.3188065,
  "tags": {
    "addr:city": "Ranchi",
    "addr:housenumber": "Darzi Mohalla",
    "addr:postcode": "834002",
    "addr:street": "Doranda college road",
    "amenity": "hospital",
    "healthcare": "hospital",
    "healthcare:speciality": "general;clinic",
    "internet_access": "no",
    "name": "aushdhalay medical store"
  }
},
{
  "type": "node",
  "id": 6235440568,
  "lat": 23.3350014,
  "lon": 85.3195852,
  "tags": {
    "addr:city": "Ranchi",
    "addr:housenumber": "Drazi Mohalla",
    "addr:postcode": "834002",
    "addr:street": "Doranda",
    "address": "ward 45",
    "amenity": "hospital",
    "description": "wholesale medical shop",
    "healthcare": "hospital",
    "name": "M S Pharma"
  }
},
{
  "type": "node",
  "id": 6235807990,
  "lat": 23.3313650,
  "lon": 85.3160416,
  "tags": {
    "addr:city": "ranchi",
    "addr:housenumber": "Hinoo",
    "addr:postcode": "834002",
    "addr:street": "Hinoo main road",
    "amenity": "hospital",
    "emergency": "yes",
    "healthcare": "hospital",
    "healthcare:speciality": "gynaecology",
    "name": "Lakshmi Nursing Home",
    "name:sat": "ᱞᱚᱠᱥᱢᱤ ᱱᱚᱨᱥᱤᱝ ᱦᱚᱢ",
    "operator": "Lakshmi Chaudhary"
  }
},
{
  "type": "node",
  "id": 6902141153,
  "lat": 23.3500020,
  "lon": 85.3299479,
  "tags": {
    "addr:city": "Ranchi",
    "addr:district": "RANCHI",
    "addr:full": "Gurunanak Hospital and Research Centre Blood Bank Unit, Station Road, Ranchi",
    "addr:postcode": "834001",
    "addr:state": "Jharkhand",
    "amenity": "hospital",
    "contact:mobile": "9031091565",
    "contact:phone": "6512460506",
    "email": "gnhrebloodbank@gmail.com",
    "healthcare": "hospital",
    "name": "Gurunanak Hospital and Research Centre Blood Bank",
    "opening_hours": "24/7",
    "operator:type": "private",
    "source": "OpenGovernmentData"
  }
},
{
  "type": "node",
  "id": 6950263842,
  "lat": 24.7826045,
  "lon": 84.9878418,
  "tags": {
    "addr:district": "Gaya",
    "addr:full": "A.P.Colony",
    "addr:postcode": "823001",
    "addr:state": "Bihar",
    "amenity": "hospital",
    "name": "Haddy Hospital and Art Center",
    "source": "OpenGovernmentData"
  }
},
{
  "type": "node",
  "id": 6950424736,
  "lat": 24.7614750,
  "lon": 84.3578070,
  "tags": {
    "addr:district": "Aurangabad",
    "addr:full": "M G Road",
    "addr:postcode": "824101",
    "addr:state": "Bihar",
    "amenity": "hospital",
    "healthcare": "hospital",
    "name": "Health World Hospital",
    "name:ur": "ہیلتھ ورلڈ ہسپتال",
    "source": "OpenGovernmentData"
  }
},
{
  "type": "node",
  "id": 6950430406,
  "lat": 24.7493116,
  "lon": 84.3665383,
  "tags": {
    "addr:district": "Aurangabad",
    "addr:full": "M.G.Road",
    "addr:postcode": "824101",
    "addr:state": "Bihar",
    "amenity": "hospital",
    "healthcare": "hospital",
    "name": "Pulse Women Hospital",
    "name:ur": "پلس ویمن ہسپتال",
    "source": "OpenGovernmentData"
  }
},
{
  "type": "node",
  "id": 6950498218,
  "lat": 25.2490070,
  "lon": 86.9893304,
  "tags": {
    "addr:district": "Bhagalpur",
    "addr:full": "R.B.B.S.Road",
    "addr:postcode": "812001",
    "addr:state": "Bihar",
    "amenity": "hospital",
    "name": "G.S. Hospital and Endolaparoscopy Centre",
    "source": "OpenGovernmentData"
  }
},
{
  "type": "node",
  "id": 6950547265,
  "lat": 25.2403302,
  "lon": 86.9659080,
  "tags": {
    "addr:district": "Bhagalpur",
    "addr:full": "Tatarpur",
    "addr:postcode": "812002",
    "addr:state": "Bihar",
    "amenity": "hospital",
    "name": "Advance Maternity and Infertility Centre",
    "source": "OpenGovernmentData"
  }
},
{
  "type": "node",
  "id": 6950547280,
  "lat": 25.2559268,
  "lon": 86.9855471,
  "tags": {
    "addr:district": "Bhagalpur",
    "addr:full": "Aadampur Chowk",
    "addr:postcode": "812001",
    "addr:state": "Bihar",
    "amenity": "hospital",
    "name": "Tapashwi Hospital",
    "source": "OpenGovernmentData"
  }
},
{
  "type": "node",
  "id": 6952973034,
  "lat": 24.8025765,
  "lon": 87.0217167,
  "tags": {
    "addr:district": "Banka",
    "addr:full": "Dr.R.K.Singh, NearBus Stand Baunsi",
    "addr:postcode": "813102",
    "addr:state": "Bihar",
    "amenity": "hospital",
    "contact:mobile": "9973756238",
    "name": "Surgery Centre",
    "source": "OpenGovernmentData"
  }
},
{
  "type": "node",
  "id": 6953034095,
  "lat": 25.0529472,
  "lon": 83.6049874,
  "tags": {
    "addr:district": "Kaimur (Bhabua)",
    "addr:full": "G.T Road . Mohania",
    "addr:postcode": "821109",
    "addr:state": "Bihar",
    "amenity": "hospital",
    "name": "Sanjeevani Hospital, Kaimur (Bhabua)",
    "source": "OpenGovernmentData"
  }
},
{
  "type": "node",
  "id": 6953305826,
  "lat": 25.2249025,
  "lon": 84.2635580,
  "tags": {
    "addr:district": "Rohtas",
    "addr:full": "Dumraon Road,Bikramganj",
    "addr:postcode": "802212",
    "addr:state": "Bihar",
    "amenity": "hospital",
    "name": "Rita Memorial Hospital",
    "source": "OpenGovernmentData"
  }
},
{
  "type": "node",
  "id": 6953321932,
  "lat": 25.2002440,
  "lon": 85.5178260,
  "tags": {
    "addr:district": "Nalanda",
    "addr:full": "Ranchi Road .Biharsarif",
    "addr:postcode": "803101",
    "addr:state": "Bihar",
    "amenity": "hospital",
    "name": "Mamta Mother and Child Hospital(P)Ltd.",
    "source": "OpenGovernmentData"
  }
},
{
  "type": "node",
  "id": 6953323380,
  "lat": 25.0141660,
  "lon": 85.4088348,
  "tags": {
    "addr:district": "Nalanda",
    "addr:full": "Veerayatan/ Rajghir",
    "addr:postcode": "803116",
    "addr:state": "Bihar",
    "amenity": "hospital",
    "name": "Netra Jyoti Seva Mandiram",
    "source": "OpenGovernmentData"
  }
},
{
  "type": "node",
  "id": 6953344035,
  "lat": 25.2063362,
  "lon": 85.5265380,
  "tags": {
    "addr:district": "Nalanda",
    "addr:full": "Naisarai Biharsarif",
    "addr:postcode": "803101",
    "addr:state": "Bihar",
    "amenity": "hospital",
    "name": "Prasad Nethralaya",
    "source": "OpenGovernmentData"
  }
},
{
  "type": "node",
  "id": 6953422926,
  "lat": 25.2499622,
  "lon": 86.9877297,
  "tags": {
    "addr:district": "Bhagalpur",
    "addr:full": "Mahatama Gandhi Path,Kacheri Road",
    "addr:postcode": "812001",
    "addr:state": "Bihar",
    "amenity": "hospital",
    "name": "Shrishti Nursing Home",
    "source": "OpenGovernmentData"
  }
},
{
  "type": "node",
  "id": 6953506026,
  "lat": 24.7910519,
  "lon": 84.9921508,
  "tags": {
    "addr:district": "Gaya",
    "addr:full": "Road No, 03 NearClub , White House Compound",
    "addr:postcode": "823001",
    "addr:state": "Bihar",
    "amenity": "hospital",
    "name": "Advanced Eye Care Centre",
    "source": "OpenGovernmentData"
  }
},
{
  "type": "node",
  "id": 6956602522,
  "lat": 25.2120479,
  "lon": 83.5200848,
  "tags": {
    "addr:district": "Kaimur (Bhabua)",
    "addr:full": "Durgawati G.T.Road",
    "addr:postcode": "821105",
    "addr:state": "Bihar",
    "amenity": "hospital",
    "name": "Prakash Hospital, Kaimur (Bhabua)",
    "source": "OpenGovernmentData"
  }
},
{
  "type": "node",
  "id": 6956619415,
  "lat": 25.2117481,
  "lon": 85.7390119,
  "tags": {
    "addr:district": "Sheikhpura",
    "addr:full": "Barbigha",
    "addr:postcode": "811101",
    "addr:state": "Bihar",
    "amenity": "hospital",
    "name": "Singh Hospital Research Center",
    "source": "OpenGovernmentData"
  }
},
{
  "type": "node",
  "id": 6956629975,
  "lat": 22.8824236,
  "lon": 84.1370586,
  "tags": {
    "addr:district": "Jashpur",
    "addr:full": "District Hospital Jaspur Nagar",
    "addr:postcode": "496331",
    "addr:state": "Chhattisgarh",
    "amenity": "hospital",
    "name": "District Hospital, Jaspur Nagar",
    "source": "OpenGovernmentData"
  }
},
{
  "type": "node",
  "id": 6956657476,
  "lat": 25.0344460,
  "lon": 84.3956442,
  "tags": {
    "addr:district": "Aurangabad",
    "addr:full": "Sangat Road Old Town Daudnagar",
    "addr:postcode": "824113",
    "addr:state": "Bihar",
    "amenity": "hospital",
    "name": "Dord Hospital",
    "source": "OpenGovernmentData"
  }
},
{
  "type": "node",
  "id": 6956662663,
  "lat": 24.7875710,
  "lon": 84.9997213,
  "tags": {
    "addr:district": "Gaya",
    "addr:full": "South Church Road, NearGhara Hotel",
    "addr:postcode": "823001",
    "addr:state": "Bihar",
    "amenity": "hospital",
    "name": "Health Touch Hospital",
    "source": "OpenGovernmentData"
  }
},
{
  "type": "node",
  "id": 6956743482,
  "lat": 25.2081130,
  "lon": 85.5164033,
  "tags": {
    "addr:district": "Nalanda",
    "addr:full": "Neel Ganan Complex, Palla Pokhar, Kaghi Mohala, Biharsarif",
    "addr:postcode": "803101",
    "addr:state": "Bihar",
    "amenity": "hospital",
    "name": "Jahnavi Eye Care and Research Center",
    "source": "OpenGovernmentData"
  }
},
{
  "type": "node",
  "id": 6956888565,
  "lat": 25.2007378,
  "lon": 85.5146465,
  "tags": {
    "addr:district": "Nalanda",
    "addr:full": "Ranchi Road, Bhaisasur , Bihar Sharif",
    "addr:postcode": "803101",
    "addr:state": "Bihar",
    "amenity": "hospital",
    "name": "Jeevan Jyoti Hospital, Nalanda",
    "source": "OpenGovernmentData"
  }
},
{
  "type": "node",
  "id": 6956903293,
  "lat": 24.9520082,
  "lon": 83.9981925,
  "tags": {
    "addr:district": "Rohtas",
    "addr:full": "Faizal Ganj, G.T. Road",
    "addr:postcode": "821115",
    "addr:state": "Bihar",
    "amenity": "hospital",
    "name": "Anand Hospital And Research Centre",
    "source": "OpenGovernmentData"
  }
},
{
  "type": "node",
  "id": 6956948359,
  "lat": 25.0214033,
  "lon": 85.4232852,
  "tags": {
    "addr:district": "Nalanda",
    "addr:full": "Kabir Nagar,NearBarma Temple",
    "addr:postcode": "801301",
    "addr:state": "Bihar",
    "amenity": "hospital",
    "name": "Kabirayatan Eye Hospital and Research Institute",
    "source": "OpenGovernmentData"
  }
},
{
  "type": "node",
  "id": 6958105776,
  "lat": 25.0402736,
  "lon": 83.6076361,
  "tags": {
    "addr:district": "Kaimur (Bhabua)",
    "addr:full": "Kachari Road",
    "addr:postcode": "821101",
    "addr:state": "Bihar",
    "amenity": "hospital",
    "name": "Ranjan Hospital, Kaimur (Bhabua)",
    "source": "OpenGovernmentData"
  }
},
{
  "type": "node",
  "id": 6965202278,
  "lat": 25.2560517,
  "lon": 86.9965723,
  "tags": {
    "addr:district": "Bhagalpur",
    "addr:full": "Sukhraj Rai Path, Katalbari",
    "addr:postcode": "812001",
    "addr:state": "Bihar",
    "amenity": "hospital",
    "contact:mobile": "9431446729",
    "name": "Kaushalaya Eye Research Institute",
    "source": "OpenGovernmentData"
  }
},
{
  "type": "node",
  "id": 6965219430,
  "lat": 25.0981807,
  "lon": 86.6640291,
  "tags": {
    "addr:district": "Munger",
    "addr:full": "Behind Bsnl Tower , Old Bus Stand, Tarapur",
    "addr:postcode": "813321",
    "addr:state": "Bihar",
    "amenity": "hospital",
    "name": "Baba Baidynath Eye Hospital",
    "source": "OpenGovernmentData"
  }
},
{
  "type": "node",
  "id": 6965433177,
  "lat": 25.1440002,
  "lon": 85.8585191,
  "tags": {
    "addr:district": "Sheikhpura",
    "addr:full": "Hanuman More, Bypass Road",
    "addr:postcode": "811105",
    "addr:state": "Bihar",
    "amenity": "hospital",
    "contact:mobile": "9308677672",
    "name": "Sri Ram Hospital",
    "source": "OpenGovernmentData"
  }
},
{
  "type": "node",
  "id": 6965565212,
  "lat": 24.9432481,
  "lon": 84.1024020,
  "tags": {
    "addr:district": "Rohtas",
    "addr:full": "Old G.T.Road,Jamuhar",
    "addr:postcode": "821305",
    "addr:state": "Bihar",
    "amenity": "hospital",
    "healthcare": "hospital",
    "name": "Narayan Medical College And Hospital",
    "source": "OpenGovernmentData",
    "website": "https://nmch.ac.in/",
    "wheelchair": "yes"
  }
},
{
  "type": "node",
  "id": 6965587324,
  "lat": 24.9167766,
  "lon": 86.2249021,
  "tags": {
    "addr:district": "Jamui",
    "addr:full": "Khaira , Main Road",
    "addr:postcode": "811307",
    "addr:state": "Bihar",
    "amenity": "hospital",
    "healthcare": "hospital",
    "name": "Dr Amit Anand-Hospital",
    "source": "OpenGovernmentData"
  }
},
{
  "type": "node",
  "id": 6965587329,
  "lat": 24.9534151,
  "lon": 84.0072584,
  "tags": {
    "addr:district": "Rohtas",
    "addr:full": "Raj Colony,G.T.Road",
    "addr:postcode": "821115",
    "addr:state": "Bihar",
    "amenity": "hospital",
    "name": "Shivam Hospital, Rohtas",
    "source": "OpenGovernmentData"
  }
},
{
  "type": "node",
  "id": 6965669955,
  "lat": 25.1789360,
  "lon": 85.5118972,
  "tags": {
    "addr:district": "Nalanda",
    "addr:full": "Kishanbagh, Biharsharif",
    "addr:postcode": "803101",
    "addr:state": "Bihar",
    "amenity": "hospital",
    "name": "Khushboo Hospital",
    "source": "OpenGovernmentData"
  }
},
{
  "type": "node",
  "id": 6965670761,
  "lat": 25.2085499,
  "lon": 85.5161652,
  "tags": {
    "addr:district": "Nalanda",
    "addr:full": "Kagji Mohala, Ranchi Road ., Biharsarif",
    "addr:postcode": "803101",
    "addr:state": "Bihar",
    "amenity": "hospital",
    "name": "Ortho Care Hospital",
    "source": "OpenGovernmentData"
  }
},
{
  "type": "node",
  "id": 6965686770,
  "lat": 25.1989516,
  "lon": 85.5295783,
  "tags": {
    "addr:district": "Nalanda",
    "addr:full": "Doctors Colony, Khandkpar, Bihar Sharif",
    "addr:postcode": "803101",
    "addr:state": "Bihar",
    "amenity": "hospital",
    "name": "Nalanda Netralaya and Maternity Home",
    "source": "OpenGovernmentData"
  }
},
{
  "type": "node",
  "id": 6965728476,
  "lat": 25.1992780,
  "lon": 85.5296038,
  "tags": {
    "addr:district": "Nalanda",
    "addr:full": "Doctors Colony, Khandakpar, Biharsarif",
    "addr:postcode": "803101",
    "addr:state": "Bihar",
    "amenity": "hospital",
    "name": "Dr Ashwani Ent Hospital",
    "source": "OpenGovernmentData"
  }
},
{
  "type": "node",
  "id": 6965846503,
  "lat": 25.2381370,
  "lon": 84.6531571,
  "tags": {
    "addr:district": "Arwal",
    "addr:full": "Purani Arwal,NearSp Khoti",
    "addr:postcode": "804401",
    "addr:state": "Bihar",
    "amenity": "hospital",
    "name": "Khursheed Ahmad Memorial Hospital",
    "source": "OpenGovernmentData"
  }
},
{
  "type": "node",
  "id": 6967187626,
  "lat": 24.8029921,
  "lon": 85.0083286,
  "tags": {
    "addr:district": "Gaya",
    "addr:full": "Rang Bahadur Road,Piparpanti",
    "addr:postcode": "823001",
    "addr:state": "Bihar",
    "amenity": "hospital",
    "healthcare": "hospital",
    "name": "Agrawal Surgical clinic and Hospital",
    "source": "OpenGovernmentData"
  }
},
{
  "type": "node",
  "id": 6967195174,
  "lat": 25.0744750,
  "lon": 84.9737468,
  "tags": {
    "addr:district": "Jehanabad",
    "addr:full": "Opposite Sbi,Beside Nh-83,Makhdumpur",
    "addr:postcode": "804422",
    "addr:state": "Bihar",
    "amenity": "hospital",
    "contact:mobile": "9470003331",
    "name": "Referal Hospital, Makhdumpur",
    "source": "OpenGovernmentData"
  }
},
{
  "type": "node",
  "id": 6967298692,
  "lat": 25.2471353,
  "lon": 86.9764987,
  "tags": {
    "addr:district": "Bhagalpur",
    "addr:full": "Khalifabagh Chowk, -2",
    "addr:postcode": "812002",
    "addr:state": "Bihar",
    "amenity": "hospital",
    "name": "Life Line Hospital, Bhagalpur",
    "source": "OpenGovernmentData"
  }
},
{
  "type": "node",
  "id": 6967353173,
  "lat": 25.1348000,
  "lon": 85.8636568,
  "tags": {
    "addr:district": "Sheikhpura",
    "addr:full": "Sation Road, Professors Colony",
    "addr:postcode": "811105",
    "addr:state": "Bihar",
    "amenity": "hospital",
    "name": "Nishi Nursing Home and Hospital",
    "source": "OpenGovernmentData"
  }
},
{
  "type": "node",
  "id": 6967360856,
  "lat": 25.2282766,
  "lon": 85.5150180,
  "tags": {
    "addr:district": "Nalanda",
    "addr:full": "Bich Adan, Sohsarai, Biharsarif",
    "addr:postcode": "803118",
    "addr:state": "Bihar",
    "amenity": "hospital",
    "contact:phone": "+91 6112232026",
    "name": "Matritva Chhaya Hospital",
    "source": "OpenGovernmentData"
  }
},
{
  "type": "node",
  "id": 6967481897,
  "lat": 24.7898393,
  "lon": 85.0077331,
  "tags": {
    "addr:district": "Gaya",
    "addr:full": "G.B Road, Gol Pathar More Magadh",
    "addr:postcode": "823001",
    "addr:state": "Bihar",
    "amenity": "hospital",
    "name": "Jindal Hospital and Endosurgery Center",
    "source": "OpenGovernmentData"
  }
},
{
  "type": "node",
  "id": 6967534378,
  "lat": 25.2060247,
  "lon": 85.5225248,
  "tags": {
    "addr:district": "Nalanda",
    "addr:full": "Kachahari Road, Bhaliasur, Biharsharif",
    "addr:postcode": "803118",
    "addr:state": "Bihar",
    "amenity": "hospital",
    "contact:phone": "+91 6112224401",
    "name": "Gautam Budha Hospital and Research Institute Private Limited",
    "source": "OpenGovernmentData"
  }
},
{
  "type": "node",
  "id": 6967534767,
  "lat": 24.7863888,
  "lon": 84.9964946,
  "tags": {
    "addr:district": "Gaya",
    "addr:full": "South Church Road",
    "addr:postcode": "823001",
    "addr:state": "Bihar",
    "amenity": "hospital",
    "name": "Al-Zahir Navjeevan Hospital and Reasearch Center",
    "source": "OpenGovernmentData"
  }
},
{
  "type": "node",
  "id": 6967607571,
  "lat": 24.7451822,
  "lon": 84.3653575,
  "tags": {
    "addr:district": "Aurangabad",
    "addr:full": "M G Road",
    "addr:postcode": "824101",
    "addr:state": "Bihar",
    "amenity": "hospital",
    "name": "S D Hospital, Aurangabad",
    "source": "OpenGovernmentData"
  }
},
{
  "type": "node",
  "id": 6967661612,
  "lat": 24.9671736,
  "lon": 85.0914475,
  "tags": {
    "addr:district": "Gaya",
    "addr:full": "Main Bazar, Khizarsarai",
    "addr:postcode": "824233",
    "addr:state": "Bihar",
    "amenity": "hospital",
    "name": "Gayatri Sewa Sadan",
    "source": "OpenGovernmentData"
  }
},
{
  "type": "node",
  "id": 6967721541,
  "lat": 25.2062019,
  "lon": 85.5262202,
  "tags": {
    "addr:district": "Nalanda",
    "addr:full": "Khandakpar,Asthama Road .Biharsarif",
    "addr:postcode": "803101",
    "addr:state": "Bihar",
    "amenity": "hospital",
    "name": "Delhi Hospital",
    "source": "OpenGovernmentData"
  }
},
{
  "type": "node",
  "id": 6967726453,
  "lat": 25.2204258,
  "lon": 84.6370760,
  "tags": {
    "addr:district": "Arwal",
    "addr:full": "Baidrabad",
    "addr:postcode": "804402",
    "addr:state": "Bihar",
    "amenity": "hospital",
    "name": "Pipra Hospital Pvt.Ltd",
    "source": "OpenGovernmentData"
  }
},
{
  "type": "node",
  "id": 6967971822,
  "lat": 24.4401294,
  "lon": 84.5904297,
  "tags": {
    "addr:district": "Gaya",
    "addr:full": "Jagdish Bhavan, Raniganj",
    "addr:postcode": "824210",
    "addr:state": "Bihar",
    "amenity": "hospital",
    "name": "Dr. Jagdish Prasad Memorial Hospital",
    "source": "OpenGovernmentData"
  }
},
{
  "type": "node",
  "id": 6968062231,
  "lat": 24.8927443,
  "lon": 85.5461906,
  "tags": {
    "addr:district": "Nawada",
    "addr:full": "North Stadium Road",
    "addr:postcode": "805110",
    "addr:state": "Bihar",
    "amenity": "hospital",
    "name": "City Hospital",
    "source": "OpenGovernmentData"
  }
},
{
  "type": "node",
  "id": 6968280783,
  "lat": 21.9275414,
  "lon": 83.3592233,
  "tags": {
    "addr:district": "Raigarh",
    "addr:full": "Kharsia Road",
    "addr:postcode": "496001",
    "addr:state": "Chhattisgarh",
    "amenity": "hospital",
    "emergency": "yes",
    "healthcare": "hospital",
    "name": "Fortis O. P. Jindal Hospital And Research Center",
    "source": "OpenGovernmentData"
  }
},
{
  "type": "node",
  "id": 6968280816,
  "lat": 22.7426126,
  "lon": 83.9547552,
  "tags": {
    "addr:district": "Jashpur",
    "addr:full": "P.O. Kunkuri",
    "addr:postcode": "496225",
    "addr:state": "Chhattisgarh",
    "amenity": "hospital",
    "name": "Holy Cross Hospital, Jashpur",
    "source": "OpenGovernmentData"
  }
},
{
  "type": "node",
  "id": 7011028322,
  "lat": 23.6894152,
  "lon": 86.7619917,
  "tags": {
    "addr:district": "Dhanbad",
    "addr:full": "Panchet",
    "addr:postcode": "828206",
    "addr:state": "Jharkhand",
    "amenity": "hospital",
    "name": "Panchet Hill Hospital",
    "source": "OpenGovernmentData"
  }
},
{
  "type": "node",
  "id": 7011035219,
  "lat": 23.7432575,
  "lon": 84.5082334,
  "tags": {
    "addr:district": "Latehar",
    "addr:full": "Bypass Road, Bariatukhalsa, Latehar",
    "addr:postcode": "829206",
    "addr:state": "Jharkhand",
    "addr:subdistrict": "Manika",
    "amenity": "hospital",
    "name": "Sadar Hospital, Latehar",
    "source": "OpenGovernmentData"
  }
},
{
  "type": "node",
  "id": 7011055175,
  "lat": 23.4000325,
  "lon": 85.3650476,
  "tags": {
    "addr:district": "Lohardaga",
    "addr:full": "Ram Nagar, Booty Road, Bariatu Bariatu",
    "addr:postcode": "834009",
    "addr:state": "Jharkhand",
    "amenity": "hospital",
    "name": "Asha Kiran Hospital",
    "source": "OpenGovernmentData"
  }
},
{
  "type": "node",
  "id": 7011104500,
  "lat": 23.3722061,
  "lon": 85.3315414,
  "tags": {
    "addr:district": "Ranchi",
    "addr:full": "East Jail Road",
    "addr:postcode": "834001",
    "addr:state": "Jharkhand",
    "amenity": "hospital",
    "name": "Prabhawathi Hospital",
    "name:sat": "ᱯᱨᱚᱵᱷᱟᱣᱟᱹᱛᱤ ᱦᱟᱥᱯᱟᱛᱟᱞ",
    "source": "OpenGovernmentData"
  }
},
{
  "type": "node",
  "id": 7011104505,
  "lat": 22.8301058,
  "lon": 86.2236254,
  "tags": {
    "addr:district": "East Singhbhum",
    "addr:full": "Dimna Road, Mango,Jamshedpur",
    "addr:postcode": "831018",
    "addr:state": "Jharkhand",
    "amenity": "hospital",
    "name": "Ganga Memorial Hospital and Research Centre",
    "source": "OpenGovernmentData"
  }
},
{
  "type": "node",
  "id": 7011104517,
  "lat": 23.6661395,
  "lon": 86.1466842,
  "tags": {
    "addr:district": "Bokaro",
    "addr:full": "Near City Centre, Chas, Sector 4",
    "addr:postcode": "827013",
    "addr:state": "Jharkhand",
    "addr:subdistrict": "Chas",
    "amenity": "hospital",
    "name": "Mother Care Hospital",
    "source": "OpenGovernmentData"
  }
},
{
  "type": "node",
  "id": 7011104522,
  "lat": 23.6659073,
  "lon": 86.1521325,
  "tags": {
    "addr:district": "Bokaro",
    "addr:full": "Near New Max Hospital, Bokaro Steel City, Sector 4",
    "addr:postcode": "827004",
    "addr:state": "Jharkhand",
    "addr:subdistrict": "Chas",
    "amenity": "hospital",
    "name": "Hope Hospital",
    "source": "OpenGovernmentData"
  }
},
{
  "type": "node",
  "id": 7011104523,
  "lat": 23.4005101,
  "lon": 85.3571351,
  "tags": {
    "addr:district": "Lohardaga",
    "addr:full": "Booty Road,Bariatu",
    "addr:postcode": "834009",
    "addr:state": "Jharkhand",
    "amenity": "hospital",
    "name": "Shirdi Sai Hospital and Research Centre",
    "source": "OpenGovernmentData"
  }
},
{
  "type": "node",
  "id": 7011156648,
  "lat": 23.6654270,
  "lon": 86.1459473,
  "tags": {
    "addr:district": "Bokaro",
    "addr:full": "K D /13, Sector 14, Steel City",
    "addr:postcode": "827004",
    "addr:state": "Jharkhand",
    "amenity": "hospital",
    "name": "Sarvodaya Hospital, Bokaro",
    "source": "OpenGovernmentData"
  }
},
{
  "type": "node",
  "id": 7011169098,
  "lat": 23.0572594,
  "lon": 85.2682950,
  "tags": {
    "addr:district": "Khunti",
    "addr:full": "Torpa Road Toli",
    "addr:postcode": "835210",
    "addr:state": "Jharkhand",
    "amenity": "hospital",
    "name": "Daya Sagar",
    "source": "OpenGovernmentData"
  }
},
{
  "type": "node",
  "id": 7011205827,
  "lat": 23.8335769,
  "lon": 86.5176518,
  "tags": {
    "addr:district": "Dhanbad",
    "addr:full": "Upper Bazar Govindpur",
    "addr:postcode": "828109",
    "addr:state": "Jharkhand",
    "amenity": "hospital",
    "name": "Om Sai Hospital and Research Centre",
    "source": "OpenGovernmentData"
  }
},
{
  "type": "node",
  "id": 7011205863,
  "lat": 24.1589306,
  "lon": 83.8087481,
  "tags": {
    "addr:district": "Garhwa",
    "addr:full": "Garwa, Opposita Petrol Pump",
    "addr:postcode": "822114",
    "addr:state": "Jharkhand",
    "amenity": "hospital",
    "name": "Sarswati Chikitsalaya",
    "source": "OpenGovernmentData"
  }
},
{
  "type": "node",
  "id": 7011205875,
  "lat": 22.8026642,
  "lon": 86.1813565,
  "tags": {
    "addr:district": "East Singhbhum",
    "addr:full": "Stocking Road",
    "addr:postcode": "831001",
    "addr:state": "Jharkhand",
    "amenity": "hospital",
    "name": "Meherbai Tata Memorial Hospital",
    "source": "OpenGovernmentData"
  }
},
{
  "type": "node",
  "id": 7011283375,
  "lat": 24.8562776,
  "lon": 87.6473272,
  "tags": {
    "addr:district": "Sahibganj",
    "addr:full": "Baramasia, Barhait, Chandragodda, Prem Jyoti Community Hospital",
    "addr:postcode": "816102",
    "addr:state": "Jharkhand",
    "addr:subdistrict": "Barhait",
    "amenity": "hospital",
    "name": "Prem Jyoti Community Hospital",
    "source": "OpenGovernmentData"
  }
},
{
  "type": "node",
  "id": 7011287223,
  "lat": 23.3973395,
  "lon": 84.0978742,
  "tags": {
    "addr:district": "Latehar",
    "addr:full": "Mahuadanr",
    "addr:postcode": "822119",
    "addr:state": "Jharkhand",
    "amenity": "hospital",
    "name": "Carmel Hospital",
    "source": "OpenGovernmentData"
  }
},
{
  "type": "node",
  "id": 7011287228,
  "lat": 23.6297400,
  "lon": 86.1216887,
  "tags": {
    "addr:district": "Bokaro",
    "addr:full": "Manmohan Co-Operative Colony, Near Bari Cooperative Colony, Po- Siwandih",
    "addr:postcode": "827011",
    "addr:state": "Jharkhand",
    "amenity": "hospital",
    "name": "Maa Sharda Charitable Hospital and Research Centre",
    "source": "OpenGovernmentData"
  }
},
{
  "type": "node",
  "id": 7011287233,
  "lat": 23.3634455,
  "lon": 85.2491775,
  "tags": {
    "addr:district": "Ranchi",
    "addr:full": "Kathal More Itki Road(Nead Dav,Hehal)",
    "addr:postcode": "835303",
    "addr:state": "Jharkhand",
    "amenity": "hospital",
    "name": "Richi Trust Hospital",
    "source": "OpenGovernmentData"
  }
},
{
  "type": "node",
  "id": 7011287234,
  "lat": 23.3934156,
  "lon": 85.3146281,
  "tags": {
    "addr:district": "Ranchi",
    "addr:full": "Kanke Road",
    "addr:postcode": "834008",
    "addr:state": "Jharkhand",
    "amenity": "hospital",
    "name": "Mungraj Gulraj Sarawgi Seva Niketan",
    "source": "OpenGovernmentData"
  }
},
{
  "type": "node",
  "id": 7011287239,
  "lat": 23.4300866,
  "lon": 85.3346977,
  "tags": {
    "addr:district": "Ranchi",
    "addr:full": "Block Chowk Kanke",
    "addr:postcode": "834006",
    "addr:state": "Jharkhand",
    "amenity": "hospital",
    "name": "Kanke General Hospital And Research Centre Pvt Ltd",
    "source": "OpenGovernmentData"
  }
},
{
  "type": "node",
  "id": 7011287246,
  "lat": 22.7902228,
  "lon": 86.2143503,
  "tags": {
    "addr:district": "East Singhbhum",
    "addr:full": "New Kalimati Road, Garhabasa, Jamshedpur",
    "addr:postcode": "831003",
    "addr:state": "Jharkhand",
    "amenity": "hospital",
    "name": "B.R.Seva Sadan and K.K Skin Institute and Research Centre",
    "source": "OpenGovernmentData"
  }
},
{
  "type": "node",
  "id": 7011287251,
  "lat": 23.3677501,
  "lon": 85.3374926,
  "tags": {
    "addr:district": "Ranchi",
    "addr:full": "Purulia Road, Near Sandhya Cinema",
    "addr:postcode": "834001",
    "addr:state": "Jharkhand",
    "amenity": "hospital",
    "name": "The Kashyap Memorial Eye Hospital - Ranchi",
    "source": "OpenGovernmentData"
  }
},
{
  "type": "node",
  "id": 7011287256,
  "lat": 23.3250584,
  "lon": 85.1855877,
  "tags": {
    "addr:district": "Ranchi",
    "addr:full": "Piska Nagri, Piska Nagri",
    "addr:postcode": "834001",
    "addr:state": "Jharkhand",
    "amenity": "hospital",
    "name": "Nagri Hospital and Research Center",
    "source": "OpenGovernmentData"
  }
},
{
  "type": "node",
  "id": 7011287261,
  "lat": 22.7918326,
  "lon": 86.2303269,
  "tags": {
    "addr:district": "East Singhbhum",
    "addr:full": "P.O. Golmuri Jamshedpur Jharkhand",
    "addr:postcode": "831012",
    "addr:state": "Jharkhand",
    "amenity": "hospital",
    "name": "Tinplate Hospital",
    "source": "OpenGovernmentData"
  }
},
{
  "type": "node",
  "id": 7011287266,
  "lat": 23.3879153,
  "lon": 85.3337469,
  "tags": {
    "addr:district": "Ranchi",
    "addr:full": "Bariatu Road(Near Karamtoli Chowk)",
    "addr:postcode": "834008",
    "addr:state": "Jharkhand",
    "amenity": "hospital",
    "name": "Rani Childern Hospital and Reserch Centre",
    "source": "OpenGovernmentData"
  }
},
{
  "type": "node",
  "id": 7011290647,
  "lat": 23.2656259,
  "lon": 85.2340807,
  "tags": {
    "addr:district": "West Singhbhum",
    "addr:full": "Sraikela Kharsawa",
    "addr:postcode": "833214",
    "addr:state": "Jharkhand",
    "amenity": "hospital",
    "name": "Lucky Seva Sansthan",
    "source": "OpenGovernmentData"
  }
},
{
  "type": "node",
  "id": 7011337949,
  "lat": 22.7974667,
  "lon": 86.2511288,
  "tags": {
    "addr:district": "East Singhbhum",
    "addr:full": "Ramni Nagar , Baridh, Jamshedpur",
    "addr:postcode": "831017",
    "addr:state": "Jharkhand",
    "amenity": "hospital",
    "name": "Vardaan Maternity Home and Research Centre",
    "source": "OpenGovernmentData"
  }
},
{
  "type": "node",
  "id": 7011343396,
  "lat": 24.0324194,
  "lon": 84.0663113,
  "tags": {
    "addr:district": "Palamu",
    "addr:full": "Arhat Road,OppositeKani Ram School",
    "addr:postcode": "822101",
    "addr:state": "Jharkhand",
    "amenity": "hospital",
    "name": "Shree Narayan Multispeciality Hospital",
    "source": "OpenGovernmentData"
  }
},
{
  "type": "node",
  "id": 7011349848,
  "lat": 23.3996362,
  "lon": 85.3387687,
  "tags": {
    "addr:district": "Lohardaga",
    "addr:full": "10, Tagore Hill Road, Morabadi ,Ranchi",
    "addr:postcode": "834009",
    "addr:state": "Jharkhand",
    "amenity": "hospital",
    "name": "Ivf and Infertility Research Hospital",
    "source": "OpenGovernmentData"
  }
},
{
  "type": "node",
  "id": 7011436380,
  "lat": 24.2001522,
  "lon": 86.2776035,
  "tags": {
    "addr:district": "Giridih",
    "addr:full": "Boro",
    "addr:postcode": "815301",
    "addr:state": "Jharkhand",
    "amenity": "hospital",
    "name": "Sahyog Hospital, Giridih",
    "source": "OpenGovernmentData"
  }
},
{
  "type": "node",
  "id": 7011463955,
  "lat": 23.3754117,
  "lon": 85.3358571,
  "tags": {
    "addr:district": "Ranchi",
    "addr:full": "35, Burdwan Compound",
    "addr:postcode": "834001",
    "addr:state": "Jharkhand",
    "amenity": "hospital",
    "name": "Kamal Eye Clinic",
    "source": "OpenGovernmentData"
  }
},
{
  "type": "node",
  "id": 7011463961,
  "lat": 24.0619649,
  "lon": 84.9386635,
  "tags": {
    "addr:district": "Chatra",
    "addr:full": "Opp. Dak Bangalow, Simariya, NH 100",
    "addr:postcode": "825103",
    "addr:state": "Jharkhand",
    "addr:subdistrict": "Simaria",
    "amenity": "hospital",
    "name": "Simariya Referral Hospital",
    "source": "OpenGovernmentData"
  }
},
{
  "type": "node",
  "id": 7011463978,
  "lat": 23.7914352,
  "lon": 86.4209354,
  "tags": {
    "addr:district": "Dhanbad",
    "addr:full": "Everest Building, Naya Bazar",
    "addr:postcode": "826001",
    "addr:state": "Jharkhand",
    "amenity": "hospital",
    "name": "Namdhari Hospital and Research Center",
    "source": "OpenGovernmentData"
  }
},
{
  "type": "node",
  "id": 7011467378,
  "lat": 23.4644052,
  "lon": 85.0807683,
  "tags": {
    "addr:district": "Ranchi",
    "addr:full": "P.O- Mandar",
    "addr:postcode": "835214",
    "addr:state": "Jharkhand",
    "amenity": "hospital",
    "name": "Holly Family Hospital",
    "source": "OpenGovernmentData"
  }
},
{
  "type": "node",
  "id": 7011520711,
  "lat": 23.6189623,
  "lon": 85.5203663,
  "tags": {
    "addr:district": "Ramgarh",
    "addr:full": "Bijulia Ramgarh Cantt",
    "addr:postcode": "829122",
    "addr:state": "Jharkhand",
    "amenity": "hospital",
    "name": "Life Care Hospital, Ramgarh",
    "source": "OpenGovernmentData"
  }
},
{
  "type": "node",
  "id": 7011520716,
  "lat": 22.8484660,
  "lon": 86.1919257,
  "tags": {
    "addr:district": "East Singhbhum",
    "addr:full": "Tamolia, Near Pardih Chowk, Nh-33, Jamshedpur",
    "addr:postcode": "831012",
    "addr:state": "Jharkhand",
    "amenity": "hospital",
    "name": "Brahmananda Narayana Hrudayalaya",
    "source": "OpenGovernmentData"
  }
},
{
  "type": "node",
  "id": 7011534538,
  "lat": 23.3504366,
  "lon": 85.2988534,
  "tags": {
    "addr:district": "Bokaro",
    "addr:full": "Sec-8",
    "addr:postcode": "827001",
    "addr:state": "Jharkhand",
    "amenity": "hospital",
    "name": "Om Sri Sai Hospital and Research Centre",
    "name:sat": "ᱳᱢ ᱥᱨᱤ ᱥᱟᱭ ᱦᱟᱥᱯᱟᱛᱟᱞ ᱟᱨ ᱨᱤᱥᱟᱨᱪ ᱥᱮᱱᱴᱚᱨ",
    "source": "OpenGovernmentData"
  }
},
{
  "type": "node",
  "id": 7011534548,
  "lat": 23.8084165,
  "lon": 86.4623219,
  "tags": {
    "addr:district": "Hazaribag",
    "addr:full": "Patliputra Medical College, BCCL Township",
    "addr:postcode": "825301",
    "addr:state": "Jharkhand",
    "amenity": "hospital",
    "healthcare:speciality": "multi speciality",
    "name": "Patliputra Medical College and Hospital",
    "operator:type": "government",
    "source": "OpenGovernmentData"
  }
},
{
  "type": "node",
  "id": 7011544587,
  "lat": 23.9976779,
  "lon": 85.3763558,
  "tags": {
    "addr:district": "Hazaribag",
    "addr:full": "Lila Villa , Matwari Hosuse Compund , Near Hotal Samrat,Marwar",
    "addr:postcode": "825301",
    "addr:state": "Jharkhand",
    "amenity": "hospital",
    "name": "Sharp Eye Foundation (P) Ltd",
    "source": "OpenGovernmentData"
  }
},
{
  "type": "node",
  "id": 7011557054,
  "lat": 24.2729818,
  "lon": 87.2405983,
  "tags": {
    "addr:district": "Gumla",
    "addr:full": "Basia, Noatoli",
    "addr:postcode": "835229",
    "addr:state": "Jharkhand",
    "addr:subdistrict": "Basia",
    "amenity": "hospital",
    "name": "St. Ursula Hospital",
    "source": "OpenGovernmentData"
  }
},
{
  "type": "node",
  "id": 7011559703,
  "lat": 23.6640501,
  "lon": 85.5133174,
  "tags": {
    "addr:district": "Ramgarh",
    "addr:full": "Ranchi Road Po Marar",
    "addr:postcode": "829117",
    "addr:state": "Jharkhand",
    "amenity": "hospital",
    "name": "Brindavan Hospital and Research Centre Pvt Ltd",
    "source": "OpenGovernmentData"
  }
},
{
  "type": "node",
  "id": 7011625770,
  "lat": 23.6375239,
  "lon": 86.1650848,
  "tags": {
    "addr:district": "Bokaro",
    "addr:full": "Near Ravindra Bhavan, Chas, Ram Nagar Colony",
    "addr:postcode": "827013",
    "addr:state": "Jharkhand",
    "addr:subdistrict": "Chas",
    "amenity": "hospital",
    "name": "Muskan Hospital And Research Centre",
    "source": "OpenGovernmentData"
  }
},
{
  "type": "node",
  "id": 7011713149,
  "lat": 23.6717773,
  "lon": 86.1483800,
  "tags": {
    "addr:district": "Bokaro",
    "addr:full": "Near Delhi Public School, Bokaro Steel City, Sector 4",
    "addr:postcode": "827004",
    "addr:state": "Jharkhand",
    "addr:subdistrict": "Chas",
    "amenity": "hospital",
    "name": "St. Paul Hospital",
    "source": "OpenGovernmentData"
  }
},
{
  "type": "node",
  "id": 7011713154,
  "lat": 23.7892534,
  "lon": 86.4160779,
  "tags": {
    "addr:district": "Dhanbad",
    "addr:full": "Katras Road, Super Market",
    "addr:postcode": "826001",
    "addr:state": "Jharkhand",
    "amenity": "hospital",
    "name": "Dhanbad Nursing Home Pvt Ltd",
    "source": "OpenGovernmentData"
  }
},
{
  "type": "node",
  "id": 7011736851,
  "lat": 23.7323474,
  "lon": 86.7977951,
  "tags": {
    "addr:district": "Dhanbad",
    "addr:full": "Chirkunda",
    "addr:postcode": "828202",
    "addr:state": "Jharkhand",
    "amenity": "hospital",
    "name": "Lions Club Raghunath Kharkia Memorial Eye Hospital",
    "source": "OpenGovernmentData"
  }
},
{
  "type": "node",
  "id": 7011736856,
  "lat": 23.6319288,
  "lon": 86.1825728,
  "tags": {
    "addr:district": "Bokaro",
    "addr:full": "Near Jodhadih More Chas, Bokaro Steel City, Main Road",
    "addr:postcode": "827013",
    "addr:state": "Jharkhand",
    "addr:subdistrict": "Chas",
    "amenity": "hospital",
    "name": "Neelam Hospital And Research Centre",
    "source": "OpenGovernmentData"
  }
},
{
  "type": "node",
  "id": 7011736861,
  "lat": 24.1890244,
  "lon": 86.3008301,
  "tags": {
    "addr:district": "Giridih",
    "addr:full": "Main Road",
    "addr:postcode": "815301",
    "addr:state": "Jharkhand",
    "amenity": "hospital",
    "name": "Rotary Eye Hospital",
    "source": "OpenGovernmentData"
  }
},
{
  "type": "node",
  "id": 7011744178,
  "lat": 23.0762291,
  "lon": 85.2780374,
  "tags": {
    "addr:district": "khunti",
    "addr:full": "khunti",
    "addr:postcode": "835210",
    "addr:state": "Jharkhand",
    "amenity": "hospital",
    "name": "Sarvangin Gramin Vikas Sanstha",
    "source": "OpenGovernmentData"
  }
},
{
  "type": "node",
  "id": 7011755934,
  "lat": 23.7849816,
  "lon": 86.4207074,
  "tags": {
    "addr:district": "Dhanbad",
    "addr:full": "Telephone Exchange Road",
    "addr:postcode": "826001",
    "addr:state": "Jharkhand",
    "amenity": "hospital",
    "name": "R.C. Hazra Memeorial Hospital",
    "source": "OpenGovernmentData"
  }
},
{
  "type": "node",
  "id": 7011762538,
  "lat": 22.4973869,
  "lon": 84.5065241,
  "tags": {
    "addr:district": "Simdega",
    "addr:full": "Near Police Station, Thethaitangar",
    "addr:postcode": "835226",
    "addr:state": "Jharkhand",
    "addr:subdistrict": "Thethaitangar",
    "amenity": "hospital",
    "name": "Referral Hospital",
    "source": "OpenGovernmentData"
  }
},
{
  "type": "node",
  "id": 7011788902,
  "lat": 23.8211249,
  "lon": 86.4142352,
  "tags": {
    "addr:district": "Dhanbad",
    "addr:full": "Baramuri, Bishnupur Polytechnic",
    "addr:postcode": "828130",
    "addr:state": "Jharkhand",
    "amenity": "hospital",
    "name": "Asarfi Hospital Pvt Ltd",
    "source": "OpenGovernmentData"
  }
},
{
  "type": "node",
  "id": 7011847675,
  "lat": 23.4188084,
  "lon": 85.4094945,
  "tags": {
    "addr:district": "Lohardaga",
    "addr:full": "Near Bit More Getalatu , Ranchi",
    "addr:postcode": "834009",
    "addr:state": "Jharkhand",
    "amenity": "hospital",
    "name": "Pankhuri Health Care",
    "source": "OpenGovernmentData"
  }
},
{
  "type": "node",
  "id": 7011865224,
  "lat": 23.3834206,
  "lon": 85.2954010,
  "tags": {
    "addr:district": "Ranchi",
    "addr:full": "Bank Colony Road Piska More, Ratu Road",
    "addr:postcode": "834001",
    "addr:state": "Jharkhand",
    "amenity": "hospital",
    "name": "S.K. Roy Memorial Hospital",
    "source": "OpenGovernmentData"
  }
},
{
  "type": "node",
  "id": 7011865229,
  "lat": 23.6504836,
  "lon": 86.1334898,
  "tags": {
    "addr:district": "Bokaro",
    "addr:full": "Near Lal Bahadur Shastri Park, Bokaro Steel City, 127,Cooperative Colony Road",
    "addr:postcode": "827001",
    "addr:state": "Jharkhand",
    "addr:subdistrict": "Chas",
    "amenity": "hospital",
    "name": "Prudence Hospital",
    "source": "OpenGovernmentData"
  }
},
{
  "type": "node",
  "id": 7011865234,
  "lat": 23.3493623,
  "lon": 85.4361664,
  "tags": {
    "addr:district": "Ranchi",
    "addr:full": "Jorar, Purulia Road, Namkum",
    "addr:postcode": "834001",
    "addr:state": "Jharkhand",
    "amenity": "hospital",
    "name": "Dwarika Hospital and Research Centre",
    "source": "OpenGovernmentData"
  }
},
{
  "type": "node",
  "id": 7011865239,
  "lat": 23.6466409,
  "lon": 86.1312152,
  "tags": {
    "addr:district": "Bokaro",
    "addr:full": "225, Co- Operative Colony, Steel City",
    "addr:postcode": "827001",
    "addr:state": "Jharkhand",
    "amenity": "hospital",
    "name": "Surgy Center",
    "source": "OpenGovernmentData"
  }
},
{
  "type": "node",
  "id": 7011865246,
  "lat": 23.7991555,
  "lon": 86.2990075,
  "tags": {
    "addr:district": "Dhanbad",
    "addr:full": "Rani Bazar,Katrasgarh,Dhanwad",
    "addr:postcode": "828113",
    "addr:state": "Jharkhand",
    "amenity": "hospital",
    "name": "Shree Krishna Matri Sadan",
    "source": "OpenGovernmentData"
  }
},
{
  "type": "node",
  "id": 7011889206,
  "lat": 23.3701206,
  "lon": 85.3388438,
  "tags": {
    "addr:district": "Ranchi",
    "addr:full": "50, Circular Road",
    "addr:postcode": "834001",
    "addr:state": "Jharkhand",
    "amenity": "hospital",
    "name": "K. C. Roy Memorial Hospital",
    "source": "OpenGovernmentData"
  }
},
{
  "type": "node",
  "id": 7011891305,
  "lat": 23.3984036,
  "lon": 85.3548143,
  "tags": {
    "addr:district": "Lohardaga",
    "addr:full": "Booty Road Bariatu Ranchi",
    "addr:postcode": "834009",
    "addr:state": "Jharkhand",
    "amenity": "hospital",
    "name": "Alam Hospital And Research Centre Pvt Ltd",
    "source": "OpenGovernmentData"
  }
},
{
  "type": "node",
  "id": 7011895976,
  "lat": 23.3756259,
  "lon": 85.3201474,
  "tags": {
    "addr:district": "Ranchi",
    "addr:full": "Jhiri Road,Pandra",
    "addr:postcode": "834005",
    "addr:state": "Jharkhand",
    "amenity": "hospital",
    "name": "Jeevan Jyoti Health Centre",
    "source": "OpenGovernmentData"
  }
},
{
  "type": "node",
  "id": 7012050279,
  "lat": 22.2765789,
  "lon": 86.7154205,
  "tags": {
    "addr:district": "East Singhbhum",
    "addr:full": "At/Po/Ps. Baharagora, Jamshedpur Jamshedpur Jamshedpur",
    "addr:postcode": "832101",
    "addr:state": "Jharkhand",
    "amenity": "hospital",
    "name": "Dr P K Ghosh Memorial Hospital and Research Center",
    "source": "OpenGovernmentData"
  }
},
{
  "type": "node",
  "id": 7012054489,
  "lat": 24.0442019,
  "lon": 84.0668906,
  "tags": {
    "addr:district": "Palamu",
    "addr:full": "Jail Hata, Daltonganj",
    "addr:postcode": "822101",
    "addr:state": "Jharkhand",
    "amenity": "hospital",
    "name": "Vanja Arogaya Kendra",
    "source": "OpenGovernmentData"
  }
},
{
  "type": "node",
  "id": 7012054494,
  "lat": 23.6171737,
  "lon": 85.5232978,
  "tags": {
    "addr:district": "Ramgarh",
    "addr:full": "Behind S.P. residence, Dr. Vinod Kumar Lane, Patratu Basti Ramgarh Cantt",
    "addr:postcode": "829122",
    "addr:state": "Jharkhand",
    "amenity": "hospital",
    "contact:email": "info@mchcrmg.in",
    "contact:phone": "06553-224557",
    "name": "Mother and Child Health Centre",
    "source": "OpenGovernmentData",
    "website": "http://mchcrmg.in/"
  }
},
{
  "type": "node",
  "id": 7012073961,
  "lat": 23.4132495,
  "lon": 85.2276810,
  "tags": {
    "addr:district": "Ranchi",
    "addr:full": "Kathi Tand Chowk, Ratu",
    "addr:postcode": "835222",
    "addr:state": "Jharkhand",
    "amenity": "hospital",
    "name": "Raju Sewa Sadan",
    "name:sat": "ᱨᱟᱡᱩ ᱥᱮᱣᱟ ᱥᱚᱫᱚᱱ",
    "source": "OpenGovernmentData"
  }
},
{
  "type": "node",
  "id": 7012081829,
  "lat": 23.3741868,
  "lon": 85.3522333,
  "tags": {
    "addr:district": "Ranchi",
    "addr:full": "Kokar, H.B.Road",
    "addr:postcode": "834001",
    "addr:state": "Jharkhand",
    "amenity": "hospital",
    "name": "Matri Prerna Eye Hospital",
    "source": "OpenGovernmentData"
  }
},
{
  "type": "node",
  "id": 7012081834,
  "lat": 23.3825466,
  "lon": 85.3222060,
  "tags": {
    "addr:district": "Ranchi",
    "addr:full": "In Front Of Governer House, Behind Machali Ghar",
    "addr:postcode": "834001",
    "addr:state": "Jharkhand",
    "amenity": "hospital",
    "check_date": "2025-04-29",
    "name": "Rani Hospital, Ranchi",
    "source": "OpenGovernmentData"
  }
},
{
  "type": "node",
  "id": 7012150012,
  "lat": 24.0356787,
  "lon": 84.0663367,
  "tags": {
    "addr:district": "Palamu",
    "addr:full": "Kund Muhalla, Near Kani Ram Chowk, Daltonganj",
    "addr:postcode": "822101",
    "addr:state": "Jharkhand",
    "amenity": "hospital",
    "name": "Long Life Care Hospital",
    "source": "OpenGovernmentData"
  }
},
{
  "type": "node",
  "id": 7012150017,
  "lat": 23.3799012,
  "lon": 85.3243827,
  "tags": {
    "addr:district": "East Singhbhum",
    "addr:full": "93, Water Works Road Sakchi J & F",
    "addr:postcode": "831001",
    "addr:state": "Jharkhand",
    "amenity": "hospital",
    "name": "Well View Health Reasearch Nursing Centre",
    "source": "OpenGovernmentData"
  }
},
{
  "type": "node",
  "id": 7012162934,
  "lat": 23.3999525,
  "lon": 85.3520617,
  "tags": {
    "addr:district": "Lohardaga",
    "addr:full": "Hill View Road Bariatu Ranchi",
    "addr:postcode": "834009",
    "addr:state": "Jharkhand",
    "amenity": "hospital",
    "name": "Hill View Hospital And Research Centre",
    "source": "OpenGovernmentData"
  }
},
{
  "type": "node",
  "id": 7012180111,
  "lat": 23.6668593,
  "lon": 86.1489540,
  "tags": {
    "addr:district": "Bokaro",
    "addr:full": "Ja- 11, City Centre, Sector-4, Bakaro Steel City",
    "addr:postcode": "827004",
    "addr:state": "Jharkhand",
    "amenity": "hospital",
    "name": "Aastha Care Hospital",
    "source": "OpenGovernmentData"
  }
},
{
  "type": "node",
  "id": 7012180121,
  "lat": 23.3552668,
  "lon": 85.3072433,
  "tags": {
    "addr:district": "Ranchi",
    "addr:full": "H-214,Harmu Housing Colony, Behind Electric Crid, Near Phal Mandi Harmu By Pass Road",
    "addr:postcode": "834001",
    "addr:state": "Jharkhand",
    "amenity": "hospital",
    "name": "Aastha Mother and Child Care Centre",
    "source": "OpenGovernmentData"
  }
},
{
  "type": "node",
  "id": 7012216009,
  "lat": 23.3584458,
  "lon": 85.3034413,
  "tags": {
    "addr:district": "Ranchi",
    "addr:full": "Ranchi, Harmu Bye Pass Road, Hospital Chowk, NH-75",
    "addr:postcode": "834002",
    "addr:state": "Jharkhand",
    "amenity": "hospital",
    "name": "Harmu Hospital & Research Centre",
    "source": "OpenGovernmentData"
  }
},
{
  "type": "node",
  "id": 7012216019,
  "lat": 23.3497262,
  "lon": 85.4144418,
  "tags": {
    "addr:district": "Ranchi",
    "addr:full": "Village-Arra, Po-Mahilong Via Tatisilwai",
    "addr:postcode": "835103",
    "addr:state": "Jharkhand",
    "amenity": "hospital",
    "name": "Mahadevi Birla Hospital and Research Center",
    "source": "OpenGovernmentData"
  }
},
{
  "type": "node",
  "id": 7012216024,
  "lat": 22.8003659,
  "lon": 86.2310015,
  "tags": {
    "addr:district": "East Singhbhum",
    "addr:full": "Sidhgora Market, Main Road,Sidhgora, Jamshedpur",
    "addr:postcode": "831009",
    "addr:state": "Jharkhand",
    "amenity": "hospital",
    "name": "Arogyam Hospital and Diagnostic Research Center",
    "source": "OpenGovernmentData"
  }
},
{
  "type": "node",
  "id": 7012216034,
  "lat": 23.4632697,
  "lon": 85.0898637,
  "tags": {
    "addr:district": "Ranchi",
    "addr:full": "Mandar",
    "addr:postcode": "834001",
    "addr:state": "Jharkhand",
    "amenity": "hospital",
    "name": "Mandar Referral Hospital",
    "source": "OpenGovernmentData"
  }
},
{
  "type": "node",
  "id": 7012216039,
  "lat": 24.4842584,
  "lon": 86.6930267,
  "tags": {
    "addr:district": "Deoghar",
    "addr:full": "Thana Road, Deoghar",
    "addr:postcode": "814112",
    "addr:state": "Jharkhand",
    "amenity": "hospital",
    "name": "Baidyanath Shankar Eye Hospital",
    "source": "OpenGovernmentData"
  }
},
{
  "type": "node",
  "id": 7012288529,
  "lat": 23.4456998,
  "lon": 85.4509145,
  "tags": {
    "addr:district": "Ranchi",
    "addr:full": "Rukka , Vikas , Post-Neori",
    "addr:postcode": "834001",
    "addr:state": "Jharkhand",
    "amenity": "hospital",
    "name": "Shalini Hospital, Ranchi",
    "source": "OpenGovernmentData"
  }
},
{
  "type": "node",
  "id": 7012358753,
  "lat": 23.3820825,
  "lon": 85.3347507,
  "tags": {
    "addr:district": "Ranchi",
    "addr:full": "R.P.O.C. Hospital, Yadav Bhawan Karamtoli",
    "addr:postcode": "834008",
    "addr:state": "Jharkhand",
    "amenity": "hospital",
    "name": "R P Orthopaedic Hospital Research Center Pvt Ltd",
    "source": "OpenGovernmentData"
  }
},
{
  "type": "node",
  "id": 7012380397,
  "lat": 22.2756295,
  "lon": 86.7232794,
  "tags": {
    "addr:district": "East Singhbhum",
    "addr:full": "Boaragora, E.Singhbhum",
    "addr:postcode": "832101",
    "addr:state": "Jharkhand",
    "amenity": "hospital",
    "name": "Rabindra Nath Panni Memorial Hospital",
    "source": "OpenGovernmentData"
  }
},
{
  "type": "node",
  "id": 7012381420,
  "lat": 23.3824284,
  "lon": 85.3224219,
  "tags": {
    "addr:district": "Ranchi",
    "addr:full": "Bedind Machli Ghar, Infront Of Rajbhawan, Through Radium Road",
    "addr:postcode": "834001",
    "addr:state": "Jharkhand",
    "amenity": "hospital",
    "check_date": "2025-04-29",
    "name": "Shree Jagannath Hospital and Research Centre",
    "source": "OpenGovernmentData"
  }
},
{
  "type": "node",
  "id": 7012489482,
  "lat": 22.7731569,
  "lon": 86.1815415,
  "tags": {
    "addr:district": "East Singhbhum",
    "addr:full": "M E School Road, Jugsalai, Jamshedpur",
    "addr:postcode": "831006",
    "addr:state": "Jharkhand",
    "amenity": "hospital",
    "name": "Rajasthan Seva Sadan",
    "source": "OpenGovernmentData"
  }
},
{
  "type": "node",
  "id": 7012577031,
  "lat": 22.7869599,
  "lon": 86.1775410,
  "tags": {
    "addr:district": "East Singhbhum",
    "addr:full": "Sakchi , Jamshedpur",
    "addr:postcode": "831001",
    "addr:state": "Jharkhand",
    "amenity": "hospital",
    "name": "Jamshedpur Eye Hospital",
    "source": "OpenGovernmentData"
  }
},
{
  "type": "node",
  "id": 7012643184,
  "lat": 23.9882412,
  "lon": 85.3624941,
  "tags": {
    "addr:city": "Hazaribagh",
    "addr:district": "Hazaribag",
    "addr:full": "Mission Hospital Road",
    "addr:postcode": "825301",
    "addr:state": "Jharkhand",
    "amenity": "hospital",
    "healthcare": "hospital",
    "name": "Ayusmaan Hospital",
    "source": "OpenGovernmentData"
  }
},
{
  "type": "node",
  "id": 7012667624,
  "lat": 23.4035157,
  "lon": 85.3178930,
  "tags": {
    "addr:district": "Ranchi",
    "addr:full": "Vidyapati Nagar, Kanke Road",
    "addr:postcode": "834008",
    "addr:state": "Jharkhand",
    "amenity": "hospital",
    "check_date": "2025-04-29",
    "name": "Sunita Maternity Home and Research Centre",
    "source": "OpenGovernmentData"
  }
},
{
  "type": "node",
  "id": 7012696359,
  "lat": 24.4033752,
  "lon": 85.9790334,
  "tags": {
    "addr:district": "Giridih",
    "addr:full": "Hundratand Road No 3 , Rajdhanwar",
    "addr:postcode": "825412",
    "addr:state": "Jharkhand",
    "addr:subdistrict": "Dhanwar",
    "amenity": "hospital",
    "name": "Rajdhanwar Referral Hospital",
    "source": "OpenGovernmentData"
  }
},
{
  "type": "node",
  "id": 7012706096,
  "lat": 23.4068990,
  "lon": 85.3159685,
  "tags": {
    "addr:district": "Ranchi",
    "addr:full": "Ashoka Path , Chandni Chowk, Kankhe Road",
    "addr:postcode": "834008",
    "addr:state": "Jharkhand",
    "amenity": "hospital",
    "check_date": "2025-04-25",
    "name": "Rohini Mohini Hospital",
    "name:sat": "ᱨᱚᱦᱤᱱᱤ ᱢᱚᱦᱤᱱᱤ ᱦᱟᱥᱯᱟᱛᱟᱞ",
    "source": "OpenGovernmentData"
  }
},
{
  "type": "node",
  "id": 7012714606,
  "lat": 24.7190042,
  "lon": 87.6552518,
  "tags": {
    "addr:district": "Pakur",
    "addr:full": "Littipara",
    "addr:postcode": "816104",
    "addr:state": "Jharkhand",
    "amenity": "hospital",
    "name": "Tribal Welfare Rural Hospital Asanbani,(Rinchi)Trust Hospital",
    "source": "OpenGovernmentData"
  }
},
{
  "type": "node",
  "id": 7012714732,
  "lat": 23.4499604,
  "lon": 85.4392173,
  "tags": {
    "addr:district": "Ranchi",
    "addr:full": "Gel Church Shopping Complex, A.C Market",
    "addr:postcode": "834001",
    "addr:state": "Jharkhand",
    "amenity": "hospital",
    "name": "Abdur Razzaque Ansari Memorial Weavers Hospital",
    "source": "OpenGovernmentData"
  }
},
{
  "type": "node",
  "id": 7012714746,
  "lat": 24.7158441,
  "lon": 87.7055231,
  "tags": {
    "addr:district": "Pakur",
    "addr:full": "Hiranpur",
    "addr:postcode": "816104",
    "addr:state": "Jharkhand",
    "amenity": "hospital",
    "name": "St. Luke Hospital, Pakur",
    "source": "OpenGovernmentData"
  }
},
{
  "type": "node",
  "id": 7012729849,
  "lat": 23.4061040,
  "lon": 85.3934576,
  "tags": {
    "addr:district": "Ranchi",
    "addr:full": "Dumardagga, Nh-33, Booty Road",
    "addr:postcode": "834001",
    "addr:state": "Jharkhand",
    "amenity": "hospital",
    "name": "Golmohar Hospital",
    "source": "OpenGovernmentData"
  }
},
{
  "type": "node",
  "id": 7012729854,
  "lat": 23.3711092,
  "lon": 85.3306952,
  "tags": {
    "addr:district": "Ranchi",
    "addr:full": "H.B.Road, Plaza Chowk",
    "addr:postcode": "834001",
    "addr:state": "Jharkhand",
    "amenity": "hospital",
    "name": "Rjsior Hospital",
    "source": "OpenGovernmentData"
  }
},
{
  "type": "node",
  "id": 7012734437,
  "lat": 22.5697844,
  "lon": 84.8096171,
  "tags": {
    "addr:district": "Simdega",
    "addr:full": "Jaldega",
    "addr:postcode": "835211",
    "addr:state": "Jharkhand",
    "addr:subdistrict": "Jaldega",
    "amenity": "hospital",
    "description": "Community Health Center",
    "healthcare": "centre",
    "name": "CHC, Jaldega",
    "source": "OpenGovernmentData"
  }
},
{
  "type": "node",
  "id": 7012734442,
  "lat": 23.7894706,
  "lon": 85.8878329,
  "tags": {
    "addr:district": "Bokaro",
    "addr:full": "Dvc Btps Hospital Tharmal",
    "addr:postcode": "829107",
    "addr:state": "Jharkhand",
    "amenity": "hospital",
    "healthcare": "hospital",
    "name": "Dvc Btps Hospital",
    "source": "OpenGovernmentData"
  }
},
{
  "type": "node",
  "id": 7012734447,
  "lat": 24.1963625,
  "lon": 86.2814444,
  "tags": {
    "addr:district": "Giridih",
    "addr:full": "Boro, P.O.- Pachamba",
    "addr:postcode": "815301",
    "addr:state": "Jharkhand",
    "amenity": "hospital",
    "name": "G D Bagaria Sewa Sadan",
    "source": "OpenGovernmentData"
  }
},
{
  "type": "node",
  "id": 7012735030,
  "lat": 24.2129418,
  "lon": 87.3701316,
  "tags": {
    "addr:district": "Dumka",
    "addr:full": "Pattabari",
    "addr:postcode": "814119",
    "addr:state": "Jharkhand",
    "amenity": "hospital",
    "name": "Ravi Surgical Hospital, Pattabari, Dumka",
    "source": "OpenGovernmentData"
  }
},
{
  "type": "node",
  "id": 7012738107,
  "lat": 23.6331599,
  "lon": 86.1737189,
  "tags": {
    "addr:district": "Bokaro",
    "addr:full": "Near Birsa Vikas ITI, Chas, Ram Nagar Colony",
    "addr:postcode": "827013",
    "addr:state": "Jharkhand",
    "addr:subdistrict": "Chas",
    "amenity": "hospital",
    "name": "K. M. Memorial Hospital",
    "source": "OpenGovernmentData"
  }
},
{
  "type": "node",
  "id": 7012907933,
  "lat": 23.8058251,
  "lon": 86.4311063,
  "tags": {
    "addr:district": "Dhanbad",
    "addr:full": "Near City Centre, Hirak Road,Bartand",
    "addr:postcode": "826001",
    "addr:state": "Jharkhand",
    "amenity": "hospital",
    "name": "Asian Dwarkadas Jalan Super Speciality Hospital",
    "source": "OpenGovernmentData",
    "website": "asiandhanbad.com"
  }
},
{
  "type": "node",
  "id": 7012931812,
  "lat": 23.8275973,
  "lon": 86.5226135,
  "tags": {
    "addr:district": "Dhanbad",
    "addr:full": "Govindpur Dhanbd",
    "addr:postcode": "828109",
    "addr:state": "Jharkhand",
    "amenity": "hospital",
    "name": "Yaslok Hospital",
    "source": "OpenGovernmentData"
  }
},
{
  "type": "node",
  "id": 7012931845,
  "lat": 24.0374937,
  "lon": 84.0624136,
  "tags": {
    "addr:district": "Palamu",
    "addr:full": "Daltonganj",
    "addr:postcode": "822101",
    "addr:state": "Jharkhand",
    "amenity": "hospital",
    "name": "Prakash Chand Jain Seva Hospital",
    "source": "OpenGovernmentData"
  }
},
{
  "type": "node",
  "id": 7012952940,
  "lat": 24.4538691,
  "lon": 85.5728987,
  "tags": {
    "addr:district": "Koderma",
    "addr:full": "Kodaram",
    "addr:postcode": "825410",
    "addr:state": "Jharkhand",
    "amenity": "hospital",
    "name": "Holy Family Hospital",
    "source": "OpenGovernmentData"
  }
},
{
  "type": "node",
  "id": 7012993295,
  "lat": 23.7876758,
  "lon": 85.5549996,
  "tags": {
    "addr:district": "Ramgarh",
    "addr:full": "West Bokaro",
    "addr:postcode": "825314",
    "addr:state": "Jharkhand",
    "amenity": "hospital",
    "name": "Tata Central Hospital",
    "source": "OpenGovernmentData"
  }
},
{
  "type": "node",
  "id": 7012993304,
  "lat": 24.2289698,
  "lon": 87.4327035,
  "tags": {
    "addr:district": "Dumka",
    "addr:full": "Mohal Pahari Christan Hospital, Shikripada",
    "addr:postcode": "814101",
    "addr:state": "Jharkhand",
    "amenity": "hospital",
    "name": "Mohal Pahari Christan Hospital",
    "source": "OpenGovernmentData"
  }
},
{
  "type": "node",
  "id": 7012993312,
  "lat": 22.9348361,
  "lon": 85.0966195,
  "tags": {
    "addr:district": "Khunti",
    "addr:full": "Torpa, R.H.Torpa",
    "addr:postcode": "835227",
    "addr:state": "Jharkhand",
    "addr:subdistrict": "Torpa",
    "amenity": "hospital",
    "name": "Government Rafferal Hospital,Torpa",
    "source": "OpenGovernmentData"
  }
},
{
  "type": "node",
  "id": 7012993334,
  "lat": 23.0492778,
  "lon": 84.5419326,
  "tags": {
    "addr:district": "Gumla",
    "addr:full": "Chetar Lohardagga Road",
    "addr:postcode": "835207",
    "addr:state": "Jharkhand",
    "amenity": "hospital",
    "name": "Nirala Medical College Hospital and Research Centre",
    "source": "OpenGovernmentData"
  }
},
{
  "type": "node",
  "id": 7012993344,
  "lat": 24.2041179,
  "lon": 84.8693921,
  "tags": {
    "addr:district": "Chatra",
    "addr:full": "Diwankhan Muhakka Ward No. 8",
    "addr:postcode": "825401",
    "addr:state": "Jharkhand",
    "amenity": "hospital",
    "name": "Sanjeevany Life Care",
    "source": "OpenGovernmentData"
  }
},
{
  "type": "node",
  "id": 7012997797,
  "lat": 23.6728287,
  "lon": 86.0185611,
  "tags": {
    "addr:district": "Bokaro",
    "addr:full": "At+Po- Jaina More, Bermo Road,Ps- Jharidih",
    "addr:postcode": "829301",
    "addr:state": "Jharkhand",
    "amenity": "hospital",
    "name": "G.K. Hospital And Research Centre",
    "source": "OpenGovernmentData"
  }
},
{
  "type": "node",
  "id": 7013008561,
  "lat": 23.4152444,
  "lon": 85.2292601,
  "tags": {
    "addr:district": "Ranchi",
    "addr:full": "Block Road, Kathikand Chowk, Ratu Basti",
    "addr:postcode": "835222",
    "addr:state": "Jharkhand",
    "amenity": "hospital",
    "name": "Vardaan Hospital and Research Center",
    "source": "OpenGovernmentData"
  }
},
{
  "type": "node",
  "id": 7013013954,
  "lat": 23.6652895,
  "lon": 86.1470255,
  "tags": {
    "addr:district": "Bokaro",
    "addr:full": "Gg-8, City Centre, Sec 4,Near Devi Cinema, Steel City",
    "addr:postcode": "827004",
    "addr:state": "Jharkhand",
    "addr:subdistrict": "Chas",
    "amenity": "hospital",
    "name": "Sri Sai Hospital, Bokaro",
    "source": "OpenGovernmentData"
  }
},
{
  "type": "node",
  "id": 7013019754,
  "lat": 23.4255570,
  "lon": 84.6850003,
  "tags": {
    "addr:district": "Gumla",
    "addr:full": "Stadium Road, Lohardaga",
    "addr:postcode": "835302",
    "addr:state": "Jharkhand",
    "amenity": "hospital",
    "name": "St. Urshula Hospital",
    "source": "OpenGovernmentData"
  }
},
{
  "type": "node",
  "id": 7013031955,
  "lat": 23.3619275,
  "lon": 85.2498735,
  "tags": {
    "addr:district": "Ranchi",
    "addr:full": "Lalgutwa, Kathal More Gumla Road",
    "addr:postcode": "835303",
    "addr:state": "Jharkhand",
    "amenity": "hospital",
    "name": "The 7 Palms Hospital and Research Centre - Ranchi",
    "source": "OpenGovernmentData"
  }
},
{
  "type": "node",
  "id": 7013057664,
  "lat": 22.8194804,
  "lon": 86.0962929,
  "tags": {
    "addr:district": "Seraikella-Kharsawan",
    "addr:full": "Tata-Kandra Main Road, Gamharia,Dhirajganj",
    "addr:postcode": "832108",
    "addr:state": "Jharkhand",
    "amenity": "hospital",
    "name": "Vanguard Hospital and Medical Research Center Pvt Ltd",
    "source": "OpenGovernmentData"
  }
},
{
  "type": "node",
  "id": 7013106534,
  "lat": 23.3709935,
  "lon": 85.3337737,
  "tags": {
    "addr:district": "Ranchi",
    "addr:full": "Udhaw Babu Street , Tharpakna",
    "addr:postcode": "834001",
    "addr:state": "Jharkhand",
    "amenity": "hospital",
    "name": "Jinwani Hospital",
    "source": "OpenGovernmentData"
  }
},
{
  "type": "node",
  "id": 7013140191,
  "lat": 23.7385013,
  "lon": 86.4170382,
  "tags": {
    "addr:district": "Dhanbad",
    "addr:full": "Dharamshala Road , Jharia",
    "addr:postcode": "828111",
    "addr:state": "Jharkhand",
    "amenity": "hospital",
    "name": "Matri Sadan",
    "source": "OpenGovernmentData"
  }
},
{
  "type": "node",
  "id": 7013140196,
  "lat": 22.7722495,
  "lon": 86.1897439,
  "tags": {
    "addr:district": "East Singhbhum",
    "addr:full": "Goushala Chowk Jugsalai, Near Goushala",
    "addr:postcode": "831006",
    "addr:state": "Jharkhand",
    "amenity": "hospital",
    "name": "Mayank-Mrinal Hospital and Research Center",
    "source": "OpenGovernmentData"
  }
},
{
  "type": "node",
  "id": 7015033531,
  "lat": 22.8355839,
  "lon": 86.2126324,
  "tags": {
    "addr:district": "East Singhbhum",
    "addr:full": "Main Road, Jawhar Nagar, Mango",
    "addr:postcode": "831018",
    "addr:state": "Jharkhand",
    "amenity": "hospital",
    "name": "Nisha General Hospital (P) Ltd.",
    "source": "OpenGovernmentData"
  }
},
{
  "type": "node",
  "id": 7015084329,
  "lat": 24.4813365,
  "lon": 86.6978815,
  "tags": {
    "addr:district": "Deoghar",
    "addr:full": "Bawan Bigha Castairs Town",
    "addr:postcode": "814112",
    "addr:state": "Jharkhand",
    "amenity": "hospital",
    "name": "Maa Lalita Hospital and Research Center Pvt Ltd",
    "source": "OpenGovernmentData"
  }
},
{
  "type": "node",
  "id": 7015255173,
  "lat": 23.3821010,
  "lon": 85.3348660,
  "tags": {
    "addr:district": "Ranchi",
    "addr:full": "Yadav Bhawan Karamtoli",
    "addr:postcode": "834008",
    "addr:state": "Jharkhand",
    "amenity": "hospital",
    "name": "Ram Pyari Ortho Hospital Research Centre Pvt Ltd",
    "source": "OpenGovernmentData"
  }
},
{
  "type": "node",
  "id": 7015262922,
  "lat": 22.8096824,
  "lon": 86.2104397,
  "tags": {
    "addr:district": "East Singhbhum",
    "addr:full": "New Baradwari Sakchi Near Mgm Hospital, Near Hotel Ganga Regency",
    "addr:postcode": "831001",
    "addr:state": "Jharkhand",
    "amenity": "hospital",
    "name": "Apex Hospital (Unit Of Chaudhary Medicare Hospital Pvt Ltd) - Jamshedpur",
    "source": "OpenGovernmentData"
  }
},
{
  "type": "node",
  "id": 7015262937,
  "lat": 23.3841655,
  "lon": 85.3070330,
  "tags": {
    "addr:city": "ranchi",
    "addr:district": "Ranchi",
    "addr:full": "Sri Krishna Nagar Colony, Ratu Road",
    "addr:housenumber": "Vivekanand Hospital",
    "addr:postcode": "834001",
    "addr:state": "Jharkhand",
    "addr:street": "Krishna Nagar Colony",
    "amenity": "hospital",
    "healthcare": "hospital",
    "name": "Vivekanand Hospital",
    "source": "OpenGovernmentData"
  }
},
{
  "type": "node",
  "id": 7015274838,
  "lat": 22.7810632,
  "lon": 86.1629927,
  "tags": {
    "addr:district": "West Singhbhum",
    "addr:full": "Sraikela Kharsawa",
    "addr:postcode": "833214",
    "addr:state": "Jharkhand",
    "amenity": "hospital",
    "name": "111 Save Life Hospital",
    "source": "OpenGovernmentData"
  }
},
{
  "type": "node",
  "id": 7048097753,
  "lat": 22.3932187,
  "lon": 87.5601125,
  "tags": {
    "addr:district": "Medinipur West",
    "addr:full": "Debra Bazar,Badshahi Road",
    "addr:postcode": "721126",
    "addr:state": "West Bengal",
    "amenity": "hospital",
    "name": "Ramkrishna Sevasadan",
    "source": "OpenGovernmentData"
  }
},
{
  "type": "node",
  "id": 7048164988,
  "lat": 23.5259167,
  "lon": 87.2552453,
  "tags": {
    "addr:district": "Bardhaman",
    "addr:full": "Durgapur",
    "addr:postcode": "713207",
    "addr:state": "West Bengal",
    "amenity": "hospital",
    "name": "DTPS Hospital",
    "source": "OpenGovernmentData"
  }
},
{
  "type": "node",
  "id": 7048173460,
  "lat": 23.6705724,
  "lon": 86.9666764,
  "tags": {
    "addr:district": "Bardhaman",
    "addr:full": "Ismail, Asansol",
    "addr:postcode": "713301",
    "addr:state": "West Bengal",
    "amenity": "hospital",
    "name": "Bengal Homoepathic Medical College and Hospital",
    "source": "OpenGovernmentData"
  }
},
{
  "type": "node",
  "id": 7048228210,
  "lat": 23.6950644,
  "lon": 87.6939386,
  "tags": {
    "addr:district": "Birbhum",
    "addr:full": "Prantik, Bolpur , Near Prantik Railway Station",
    "addr:postcode": "731235",
    "addr:state": "West Bengal",
    "amenity": "hospital",
    "name": "Ram Mohan Mission Eye Hospital",
    "source": "OpenGovernmentData"
  }
},
{
  "type": "node",
  "id": 7048228583,
  "lat": 22.3316925,
  "lon": 87.3372880,
  "tags": {
    "addr:district": "Medinipur West",
    "addr:full": "Kaushalya, Kharagpur",
    "addr:postcode": "721301",
    "addr:state": "West Bengal",
    "amenity": "hospital",
    "name": "Raj Nursing Home and Infertility Centre Pvt.Ltd.",
    "source": "OpenGovernmentData"
  }
},
{
  "type": "node",
  "id": 7048230707,
  "lat": 22.4246447,
  "lon": 87.3186453,
  "tags": {
    "addr:district": "Medinipur West",
    "addr:full": "6/6, Rabindra Nagar, Midnapur",
    "addr:postcode": "721101",
    "addr:state": "West Bengal",
    "amenity": "hospital",
    "healthcare": "hospital",
    "name": "Raj Nursing Home and Infertility Center Pvt Ltd",
    "source": "OpenGovernmentData"
  }
},
{
  "type": "node",
  "id": 7048258524,
  "lat": 22.3263718,
  "lon": 87.3153958,
  "tags": {
    "addr:district": "Medinipur West",
    "addr:full": "Chota Tengra,Keshiary Road,Kharagpur",
    "addr:postcode": "721101",
    "addr:state": "West Bengal",
    "amenity": "hospital",
    "healthcare": "hospital",
    "name": "Quality Health Care Centre",
    "source": "OpenGovernmentData"
  }
},
{
  "type": "node",
  "id": 7048269597,
  "lat": 23.7047570,
  "lon": 86.9521657,
  "tags": {
    "addr:district": "Bardhaman",
    "addr:full": "Adda Industrial Plot, Kalyanpur Housing Bus Stand,Asansol- 5,Asansol(Mc)",
    "addr:postcode": "713305",
    "addr:state": "West Bengal",
    "amenity": "hospital",
    "name": "Punardristee Eye and General Hospital",
    "source": "OpenGovernmentData"
  }
},
{
  "type": "node",
  "id": 7048438087,
  "lat": 22.0665309,
  "lon": 85.6650497,
  "tags": {
    "addr:district": "Kendujhar",
    "addr:full": "Near Azim Market, Champua",
    "addr:postcode": "758041",
    "addr:state": "Odisha",
    "amenity": "hospital",
    "name": "Sub Divisional Hospital, Champua",
    "source": "OpenGovernmentData"
  }
},
{
  "type": "node",
  "id": 7048447685,
  "lat": 23.7044488,
  "lon": 86.9531500,
  "tags": {
    "addr:district": "Bardhaman",
    "addr:full": "Opposite Kalyanpura Housing More, Sen Raleigh Road",
    "addr:postcode": "713304",
    "addr:state": "West Bengal",
    "amenity": "hospital",
    "name": "H L G Memorial Charitable Hospital and Research Institute",
    "source": "OpenGovernmentData",
    "website": "https://hlghospital.com/"
  }
},
{
  "type": "node",
  "id": 7048472851,
  "lat": 22.4226141,
  "lon": 87.3185568,
  "tags": {
    "addr:district": "Medinipur West",
    "addr:full": "Rabindra nagar",
    "addr:postcode": "721101",
    "addr:state": "West Bengal",
    "amenity": "hospital",
    "healthcare": "hospital",
    "name": "Happy Health Home Nursing Home Cum Maternity",
    "source": "OpenGovernmentData"
  }
},
{
  "type": "node",
  "id": 7048705401,
  "lat": 21.9008147,
  "lon": 87.5361161,
  "tags": {
    "addr:district": "Medinipur East",
    "addr:full": "Purushottampur,Egra",
    "addr:postcode": "721429",
    "addr:state": "West Bengal",
    "amenity": "hospital",
    "name": "Prafulla Medical and Research Center Pvt Ltd",
    "source": "OpenGovernmentData"
  }
},
{
  "type": "node",
  "id": 7048745620,
  "lat": 23.2473506,
  "lon": 87.8647173,
  "tags": {
    "addr:district": "Bardhaman",
    "addr:full": "Jail Khana More, Ramkrishna Road, Ranisayer (N)",
    "addr:postcode": "713103",
    "addr:state": "West Bengal",
    "amenity": "hospital",
    "healthcare": "hospital",
    "name": "Megha Eye Centre",
    "source": "OpenGovernmentData"
  }
},
{
  "type": "node",
  "id": 7050964277,
  "lat": 23.2431169,
  "lon": 87.0430979,
  "tags": {
    "addr:district": "Bankura",
    "addr:full": "Kenduadihi",
    "addr:postcode": "722101",
    "addr:state": "West Bengal",
    "amenity": "hospital",
    "name": "Maa Mahamaya Hospital",
    "source": "OpenGovernmentData"
  }
},
{
  "type": "node",
  "id": 7051034541,
  "lat": 21.9292303,
  "lon": 86.7262400,
  "tags": {
    "addr:district": "Mayurbhanj",
    "addr:full": "K.C.Circle Road,Baripada",
    "addr:postcode": "757001",
    "addr:state": "Odisha",
    "amenity": "hospital",
    "name": "Jeevandeep Hospital And Research Centre",
    "source": "OpenGovernmentData"
  }
},
{
  "type": "node",
  "id": 7051154972,
  "lat": 22.0187543,
  "lon": 85.4183084,
  "tags": {
    "addr:district": "Kendujhar",
    "addr:full": "P.O Joda",
    "addr:postcode": "758034",
    "addr:state": "Odisha",
    "amenity": "hospital",
    "name": "Tata Steel Hospital",
    "source": "OpenGovernmentData"
  }
},
{
  "type": "node",
  "id": 7051203083,
  "lat": 22.2229905,
  "lon": 84.8112166,
  "tags": {
    "addr:district": "Sundargarh",
    "addr:full": "N 18, Civil Township",
    "addr:postcode": "769004",
    "addr:state": "Odisha",
    "amenity": "hospital",
    "healthcare": "hospital",
    "name": "Super Speciality Hospital",
    "source": "OpenGovernmentData"
  }
},
{
  "type": "node",
  "id": 7053456073,
  "lat": 22.4243720,
  "lon": 87.3185252,
  "tags": {
    "addr:district": "Medinipur West",
    "addr:full": "Behind Primary School Board Office), Rabindranagar",
    "addr:postcode": "721101",
    "addr:state": "West Bengal",
    "amenity": "hospital",
    "healthcare": "hospital",
    "name": "Samanta Eye Care",
    "source": "OpenGovernmentData",
    "website": "samantaeyecare.com"
  }
},
{
  "type": "node",
  "id": 7053669214,
  "lat": 22.2247317,
  "lon": 84.8250386,
  "tags": {
    "addr:district": "Sundargarh",
    "addr:full": "D/10,Civil Township,Rourkela",
    "addr:postcode": "769004",
    "addr:state": "Odisha",
    "amenity": "hospital",
    "healthcare": "hospital",
    "name": "Lifeline Hospital, Sundargarh",
    "source": "OpenGovernmentData"
  }
},
{
  "type": "node",
  "id": 7053694124,
  "lat": 22.4438078,
  "lon": 87.6295482,
  "tags": {
    "addr:district": "Medinipur West",
    "addr:full": "P.O. Lowada,P.S. Debra,Lowada Ashari Badh Road",
    "addr:postcode": "721136",
    "addr:state": "West Bengal",
    "amenity": "hospital",
    "name": "Satyam Shivam nursing Home and Diagnostic Centre",
    "source": "OpenGovernmentData"
  }
},
{
  "type": "node",
  "id": 7053742317,
  "lat": 22.2265110,
  "lon": 84.8214844,
  "tags": {
    "addr:district": "Sundargarh",
    "addr:full": "H-4, Civil Township",
    "addr:postcode": "769004",
    "addr:state": "Odisha",
    "amenity": "hospital",
    "healthcare": "hospital",
    "name": "Vesaj Patel Hospital",
    "source": "OpenGovernmentData"
  }
},
{
  "type": "node",
  "id": 7053748838,
  "lat": 23.6940733,
  "lon": 86.9445589,
  "tags": {
    "addr:district": "Bardhaman",
    "addr:full": "Saradapally,Kumarpur,Asansol",
    "addr:postcode": "713304",
    "addr:state": "West Bengal",
    "amenity": "hospital",
    "name": "Sebayan Matri Sadan",
    "source": "OpenGovernmentData"
  }
},
{
  "type": "node",
  "id": 7053870914,
  "lat": 23.0110541,
  "lon": 87.5954499,
  "tags": {
    "addr:district": "Bankura",
    "addr:full": "Kotalpur",
    "addr:postcode": "722141",
    "addr:state": "West Bengal",
    "amenity": "hospital",
    "name": "Camelia Health And Eye Care",
    "source": "OpenGovernmentData"
  }
},
{
  "type": "node",
  "id": 7053902862,
  "lat": 22.2277293,
  "lon": 84.8404423,
  "tags": {
    "addr:district": "Sundargarh",
    "addr:full": "Near Ambedkar Chowk, Udit Nagar Rourkela",
    "addr:postcode": "769012",
    "addr:state": "Odisha",
    "amenity": "hospital",
    "healthcare": "hospital",
    "name": "Shanti Memorial Hospital, Sundargarh",
    "source": "OpenGovernmentData"
  }
},
{
  "type": "node",
  "id": 7058957495,
  "lat": 23.7897149,
  "lon": 87.3882461,
  "tags": {
    "addr:district": "Birbhum",
    "addr:full": "Dubrajpur,Nabadiganta Market Complex Suri",
    "addr:postcode": "731123",
    "addr:state": "West Bengal",
    "amenity": "hospital",
    "name": "Glocal Hospital",
    "source": "OpenGovernmentData"
  }
},
{
  "type": "node",
  "id": 7058981428,
  "lat": 23.9092507,
  "lon": 87.5245598,
  "tags": {
    "addr:district": "Birbhum",
    "addr:full": "Puratan Line, Dangalpara Road, Suri",
    "addr:postcode": "731101",
    "addr:state": "West Bengal",
    "amenity": "hospital",
    "name": "Swastik Hospital",
    "source": "OpenGovernmentData"
  }
},
{
  "type": "node",
  "id": 7058981441,
  "lat": 23.2460271,
  "lon": 87.8588224,
  "tags": {
    "addr:district": "Bardhaman",
    "addr:full": "Shayam Sayer (North), Near Burdwan Hospital & Raj Collage",
    "addr:postcode": "713101",
    "addr:state": "West Bengal",
    "amenity": "hospital",
    "healthcare": "hospital",
    "name": "Parijat Sevalay",
    "source": "OpenGovernmentData"
  }
},
{
  "type": "node",
  "id": 7062152284,
  "lat": 23.8328825,
  "lon": 87.6775342,
  "tags": {
    "addr:district": "Birbhum",
    "addr:full": "Iswarpur. P.O,Ahmedpur",
    "addr:postcode": "731201",
    "addr:state": "West Bengal",
    "amenity": "hospital",
    "name": "Susthya Eye Care",
    "source": "OpenGovernmentData"
  }
},
{
  "type": "node",
  "id": 7062200059,
  "lat": 23.9228527,
  "lon": 87.5179844,
  "tags": {
    "addr:district": "Birbhum",
    "addr:full": "Lambodarpur,Ranigunj-Suri Road, Suri",
    "addr:postcode": "731101",
    "addr:state": "West Bengal",
    "amenity": "hospital",
    "name": "Indralok Speciality Centre",
    "source": "OpenGovernmentData"
  }
},
{
  "type": "node",
  "id": 7062227998,
  "lat": 22.4221814,
  "lon": 87.3221281,
  "tags": {
    "addr:district": "Medinipur West",
    "addr:full": "Medinipur West",
    "addr:postcode": "721101",
    "addr:state": "West Bengal",
    "amenity": "hospital",
    "healthcare": "hospital",
    "name": "Indian Red Cross Society, Medinipur West",
    "source": "OpenGovernmentData"
  }
},
{
  "type": "node",
  "id": 7062308630,
  "lat": 23.2949121,
  "lon": 87.4250327,
  "tags": {
    "addr:district": "Bankura",
    "addr:full": "Gangani Danga, Ward- 13 , Bankura Burdwan Road, Sonamukhi",
    "addr:postcode": "722207",
    "addr:state": "West Bengal",
    "amenity": "hospital",
    "name": "Glocal Hospital, Bankura",
    "source": "OpenGovernmentData"
  }
},
{
  "type": "node",
  "id": 7062632521,
  "lat": 23.5396600,
  "lon": 87.3002172,
  "tags": {
    "addr:district": "Bardhaman",
    "addr:full": "Doctors Colony, Central Park, City Centre, Durgapur",
    "addr:postcode": "713216",
    "addr:state": "West Bengal",
    "amenity": "hospital",
    "email": "me.cityclinic@rediffmail.com ; info@durgapurcityhospital.com",
    "name": "Durgapur City clinic and Nursing Home Pvt Ltd",
    "phone": "245-5262 / 254-6600",
    "source": "OpenGovernmentData",
    "website": "durgapurcityhospital.com"
  }
},
{
  "type": "node",
  "id": 7065549007,
  "lat": 23.9170762,
  "lon": 87.5225522,
  "tags": {
    "addr:district": "Birbhum",
    "addr:full": "Paschim Lalkuthia Para,Suri",
    "addr:postcode": "731101",
    "addr:state": "West Bengal",
    "amenity": "hospital",
    "name": "D.B.M Suri Lions Eye Hospital",
    "source": "OpenGovernmentData"
  }
},
{
  "type": "node",
  "id": 7065628303,
  "lat": 23.8117020,
  "lon": 86.8853979,
  "tags": {
    "addr:district": "Bardhaman",
    "addr:full": "P.O : Rupnarayan Pur Bazar",
    "addr:postcode": "713101",
    "addr:state": "West Bengal",
    "amenity": "hospital",
    "name": "Amala Arogya Niketan (Nursing Home)",
    "source": "OpenGovernmentData"
  }
},
{
  "type": "node",
  "id": 7065864035,
  "lat": 23.6777662,
  "lon": 87.7178076,
  "tags": {
    "addr:district": "Birbhum",
    "addr:full": "Layek Bazar, Bolpur Nanoor Road, Bolpur",
    "addr:postcode": "731204",
    "addr:state": "West Bengal",
    "amenity": "hospital",
    "name": "Glocal Hospital - Bolpur",
    "source": "OpenGovernmentData"
  }
},
{
  "type": "node",
  "id": 7065864048,
  "lat": 23.2429234,
  "lon": 87.8697970,
  "tags": {
    "addr:district": "Bardhaman",
    "addr:full": "Goods Shed Road, Tinkonia",
    "addr:postcode": "713101",
    "addr:state": "West Bengal",
    "amenity": "hospital",
    "name": "Lions Club of Barddhaman",
    "source": "OpenGovernmentData"
  }
},
{
  "type": "node",
  "id": 7065866528,
  "lat": 22.8896139,
  "lon": 87.7789714,
  "tags": {
    "addr:district": "Hooghly",
    "addr:full": "Pallishree, Arambagh",
    "addr:postcode": "712601",
    "addr:state": "West Bengal",
    "amenity": "hospital",
    "name": "Gita Seva Sadan, Arambagh",
    "source": "OpenGovernmentData"
  }
},
{
  "type": "node",
  "id": 7065866540,
  "lat": 23.2422526,
  "lon": 87.8621463,
  "tags": {
    "addr:district": "Bardhaman",
    "addr:full": "33A, R B Ghosh Road, Mallick Bazar, Khoshbagan",
    "addr:postcode": "713101",
    "addr:state": "West Bengal",
    "amenity": "hospital",
    "healthcare": "hospital",
    "name": "Lions Eye Care Hospital",
    "source": "OpenGovernmentData"
  }
},
{
  "type": "node",
  "id": 7065871412,
  "lat": 22.3167856,
  "lon": 87.2932756,
  "tags": {
    "addr:district": "Medinipur West",
    "addr:full": "Mayapur Dvc Market,Kharagpur",
    "addr:postcode": "721306",
    "addr:state": "West Bengal",
    "amenity": "hospital",
    "contact:phone": "3222277372",
    "healthcare": "hospital",
    "name": "Amiyaa Maternity Cum Nursing Home",
    "source": "OpenGovernmentData"
  }
},
{
  "type": "node",
  "id": 7068377986,
  "lat": 21.9321082,
  "lon": 86.7286942,
  "tags": {
    "addr:district": "Mayurbhanj",
    "addr:full": "W No 4 Hospital Square, Near Tb Hospital Road, Baripada",
    "addr:postcode": "757001",
    "addr:state": "Odisha",
    "amenity": "hospital",
    "name": "Sai X-Ray Pathology and Nursing Home",
    "source": "OpenGovernmentData"
  }
},
{
  "type": "node",
  "id": 7068378020,
  "lat": 22.2298612,
  "lon": 84.8437637,
  "tags": {
    "addr:district": "Sundargarh",
    "addr:full": "Em Block, Basanti Colony",
    "addr:postcode": "769012",
    "addr:state": "Odisha",
    "amenity": "hospital",
    "healthcare": "hospital",
    "name": "Rajasthan Seva Sadan",
    "source": "OpenGovernmentData"
  }
},
{
  "type": "node",
  "id": 7068409660,
  "lat": 23.5232869,
  "lon": 87.3440733,
  "tags": {
    "addr:district": "Bardhaman",
    "addr:full": "N-1, Doctor S Colony, City Centre, Durgapur",
    "addr:postcode": "713216",
    "addr:state": "West Bengal",
    "amenity": "hospital",
    "healthcare": "hospital",
    "name": "Dr.B.C.Roy Medical Institute",
    "source": "OpenGovernmentData"
  }
},
{
  "type": "node",
  "id": 7068421376,
  "lat": 23.2453893,
  "lon": 87.8592830,
  "tags": {
    "addr:district": "Bardhaman",
    "addr:full": "J.N.Joy Road,Shyamsayee (East)",
    "addr:postcode": "713101",
    "addr:state": "West Bengal",
    "amenity": "hospital",
    "healthcare": "hospital",
    "name": "Nayonika Eye Care Centre",
    "source": "OpenGovernmentData"
  }
},
{
  "type": "node",
  "id": 7068848805,
  "lat": 22.6497744,
  "lon": 87.7404843,
  "tags": {
    "addr:district": "Medinipur West",
    "addr:full": "Kushpata, Ghatal",
    "addr:postcode": "721212",
    "addr:state": "West Bengal",
    "amenity": "hospital",
    "name": "Ghatal Lion Eye Hospital",
    "source": "OpenGovernmentData"
  }
},
{
  "type": "node",
  "id": 7068848815,
  "lat": 23.2304020,
  "lon": 87.0636295,
  "tags": {
    "addr:district": "Bankura",
    "addr:full": "Patpur (Jail Road ), Bankura,West Be",
    "addr:postcode": "722101",
    "addr:state": "West Bengal",
    "amenity": "hospital",
    "name": "Bankura Seva Niketan Hospital - Bankura",
    "source": "OpenGovernmentData"
  }
},
{
  "type": "node",
  "id": 7068848850,
  "lat": 23.2384337,
  "lon": 87.0547876,
  "tags": {
    "addr:district": "Bankura",
    "addr:full": "Jogeshpally , P.O.P.S.",
    "addr:postcode": "722101",
    "addr:state": "West Bengal",
    "amenity": "hospital",
    "name": "Muktakeshi Arogya Niketan",
    "source": "OpenGovernmentData"
  }
},
{
  "type": "node",
  "id": 7069043464,
  "lat": 22.4239059,
  "lon": 87.3275787,
  "tags": {
    "addr:district": "Medinipur West",
    "addr:full": "63, Rajabazar, Po- Midnapore",
    "addr:postcode": "721101",
    "addr:state": "West Bengal",
    "amenity": "hospital",
    "healthcare": "hospital",
    "name": "N.K.Chatterjee Memorial Maternity Cum Nursing Home",
    "source": "OpenGovernmentData"
  }
},
{
  "type": "node",
  "id": 7069051086,
  "lat": 23.6333030,
  "lon": 87.1140363,
  "tags": {
    "addr:district": "Bardhaman",
    "addr:full": "N.S.B Road, Searsole, Rajbari,Raniganj",
    "addr:postcode": "713358",
    "addr:state": "West Bengal",
    "amenity": "hospital",
    "name": "Anandalok Hospital",
    "source": "OpenGovernmentData"
  }
},
{
  "type": "node",
  "id": 7069095527,
  "lat": 23.2394934,
  "lon": 87.0686138,
  "tags": {
    "addr:district": "Bankura",
    "addr:full": "Rampur(Puration Rathala)",
    "addr:postcode": "722101",
    "addr:state": "West Bengal",
    "amenity": "hospital",
    "name": "Biswarupa Maternity and Nursing Home",
    "source": "OpenGovernmentData"
  }
},
{
  "type": "node",
  "id": 7069112452,
  "lat": 23.3391953,
  "lon": 86.3561714,
  "tags": {
    "addr:district": "Purulia",
    "addr:full": "West Lake Road",
    "addr:postcode": "723101",
    "addr:state": "West Bengal",
    "amenity": "hospital",
    "name": "Rotary Club Of Purulia Service Centre",
    "source": "OpenGovernmentData"
  }
},
{
  "type": "node",
  "id": 7071390498,
  "lat": 23.6303232,
  "lon": 87.1133090,
  "tags": {
    "addr:district": "Bardhaman",
    "addr:full": "P.O. Searsole Rajbari,Raniganj",
    "addr:postcode": "713347",
    "addr:state": "West Bengal",
    "amenity": "hospital",
    "name": "Kumar P. N Malaiah Hospital",
    "source": "OpenGovernmentData"
  }
},
{
  "type": "node",
  "id": 7071390509,
  "lat": 23.2313162,
  "lon": 87.0736229,
  "tags": {
    "addr:district": "Bankura",
    "addr:full": "Nityananda Ashram Lane, Bankura I,Nutangabj",
    "addr:postcode": "722101",
    "addr:state": "West Bengal",
    "amenity": "hospital",
    "name": "Nityananda Arogya Niketan",
    "source": "OpenGovernmentData"
  }
},
{
  "type": "node",
  "id": 7071390531,
  "lat": 23.6886619,
  "lon": 86.9511030,
  "tags": {
    "addr:district": "Bardhaman",
    "addr:full": "68,S.B.Gorai Road, Near St. Vincent School 347, Burnpur Road, Near Court More",
    "addr:postcode": "713304",
    "addr:state": "West Bengal",
    "amenity": "hospital",
    "name": "Drishti Eye Hospital (A Unit Of Drishti Eye Hospital Pvt. Ltd.) - Asansol",
    "source": "OpenGovernmentData"
  }
},
{
  "type": "node",
  "id": 7071390558,
  "lat": 23.2548275,
  "lon": 87.8561758,
  "tags": {
    "addr:district": "Bardhaman",
    "addr:full": "Grand Trunk Road,Bhangakunthi",
    "addr:postcode": "713101",
    "addr:state": "West Bengal",
    "amenity": "hospital",
    "healthcare": "hospital",
    "name": "The Lifeline Nursing Homeand Poly Clinic",
    "source": "OpenGovernmentData"
  }
},
{
  "type": "node",
  "id": 7071390563,
  "lat": 23.2499735,
  "lon": 87.0325505,
  "tags": {
    "addr:district": "Bankura",
    "addr:full": "Katuridanga More, P.O.- Kenduadihi",
    "addr:postcode": "722102",
    "addr:state": "West Bengal",
    "amenity": "hospital",
    "name": "Jeeban Suraksha Hospital",
    "source": "OpenGovernmentData"
  }
},
{
  "type": "node",
  "id": 7071431277,
  "lat": 23.5200264,
  "lon": 87.3553296,
  "tags": {
    "addr:district": "Bardhaman",
    "addr:full": "Plot No 219 (P), Immon Kalyan,Saptarshi Sarani,Durgapur",
    "addr:postcode": "713212",
    "addr:state": "West Bengal",
    "amenity": "hospital",
    "check_date": "2025-01-27",
    "healthcare": "hospital",
    "name": "The Mission Hospital",
    "source": "OpenGovernmentData",
    "website": "https://themissionhospital.com/"
  }
},
{
  "type": "node",
  "id": 7071466605,
  "lat": 23.3876197,
  "lon": 87.1018748,
  "tags": {
    "addr:district": "Bankura",
    "addr:full": "CE/123,Ranbahal,Amarkanan-Ranbahal Road",
    "addr:postcode": "722133",
    "addr:state": "West Bengal",
    "amenity": "hospital",
    "name": "Shamayita Jeevan Surya Hospital",
    "source": "OpenGovernmentData"
  }
},
{
  "type": "node",
  "id": 7071466610,
  "lat": 22.3256103,
  "lon": 87.3142856,
  "tags": {
    "addr:district": "Medinipur West",
    "addr:full": "Chotta Tengra,Dandapat Compound, Kharagpur",
    "addr:postcode": "721301",
    "addr:state": "West Bengal",
    "amenity": "hospital",
    "healthcare": "hospital",
    "name": "Kharagpur Sathi Health Care For Aged",
    "source": "OpenGovernmentData"
  }
},
{
  "type": "node",
  "id": 7071466624,
  "lat": 23.3054355,
  "lon": 86.9709935,
  "tags": {
    "addr:district": "Bankura",
    "addr:full": "Po - Chhatna,Lakshminarayanpur",
    "addr:postcode": "722132",
    "addr:state": "West Bengal",
    "amenity": "hospital",
    "name": "Basali Maternity And Nursing Home",
    "source": "OpenGovernmentData"
  }
},
{
  "type": "node",
  "id": 7071466633,
  "lat": 23.5128238,
  "lon": 87.3508195,
  "tags": {
    "addr:district": "Bardhaman",
    "addr:full": "B-120,Aldrin Path, Bidhannagar Durgapur",
    "addr:postcode": "713212",
    "addr:state": "West Bengal",
    "amenity": "hospital",
    "name": "Bidhan Niramoy Nursing Home",
    "source": "OpenGovernmentData"
  }
},
{
  "type": "node",
  "id": 7071466638,
  "lat": 22.3442668,
  "lon": 87.2900207,
  "tags": {
    "addr:district": "Medinipur West",
    "addr:full": "Malancha Road, Kharagpur",
    "addr:postcode": "721301",
    "addr:state": "West Bengal",
    "amenity": "hospital",
    "healthcare": "hospital",
    "name": "Bimal Arogya Niketan",
    "source": "OpenGovernmentData"
  }
},
{
  "type": "node",
  "id": 7071466643,
  "lat": 22.6554511,
  "lon": 87.7347492,
  "tags": {
    "addr:district": "Medinipur West",
    "addr:full": "Kushpata, Ghatal",
    "addr:postcode": "721212",
    "addr:state": "West Bengal",
    "amenity": "hospital",
    "name": "Bimol Sisu Sadan",
    "source": "OpenGovernmentData"
  }
},
{
  "type": "node",
  "id": 7071650064,
  "lat": 23.2286591,
  "lon": 87.8515326,
  "tags": {
    "addr:district": "Bardhaman",
    "addr:full": "Netaji Nagar, Bardhaman",
    "addr:postcode": "713102",
    "addr:state": "West Bengal",
    "amenity": "hospital",
    "healthcare": "hospital",
    "name": "Burdwan Municipal Health Centre",
    "source": "OpenGovernmentData"
  }
},
{
  "type": "node",
  "id": 7071650076,
  "lat": 23.6954323,
  "lon": 86.9486301,
  "tags": {
    "addr:district": "Bardhaman",
    "addr:full": "#194, G.T. Road (W),Kumarpur,Opposite A G Cruch School",
    "addr:postcode": "713304",
    "addr:state": "West Bengal",
    "amenity": "hospital",
    "name": "Kamalalaya Hospital (P) Ltd.,",
    "source": "OpenGovernmentData"
  }
},
{
  "type": "node",
  "id": 7071670261,
  "lat": 23.6872574,
  "lon": 86.9731338,
  "tags": {
    "addr:district": "Bardhaman",
    "addr:full": "G.T.Road,Asansol",
    "addr:postcode": "713359",
    "addr:state": "West Bengal",
    "amenity": "hospital",
    "name": "Kamalaya Hospital Pvt Ltd",
    "source": "OpenGovernmentData"
  }
},
{
  "type": "node",
  "id": 7071676992,
  "lat": 23.6186748,
  "lon": 87.1141483,
  "tags": {
    "addr:district": "Bardhaman",
    "addr:full": "N.S.B.Road, Raniganj",
    "addr:postcode": "713347",
    "addr:state": "West Bengal",
    "amenity": "hospital",
    "name": "B.N.Agarwal Memorial Hospital",
    "source": "OpenGovernmentData"
  }
},
{
  "type": "node",
  "id": 7071683939,
  "lat": 23.6898273,
  "lon": 86.9580853,
  "tags": {
    "addr:district": "Bardhaman",
    "addr:full": "36/1,Ram Gulam Sing Road,Ushagram Asansol",
    "addr:postcode": "713301",
    "addr:state": "West Bengal",
    "amenity": "hospital",
    "name": "Asnsol Eye Hospital",
    "source": "OpenGovernmentData"
  }
},
{
  "type": "node",
  "id": 7071683951,
  "lat": 22.6067381,
  "lon": 87.7247612,
  "tags": {
    "addr:district": "Medinipur West",
    "addr:full": "Vill-Dihibaliharpur, P.O.-Daspur",
    "addr:postcode": "721211",
    "addr:state": "West Bengal",
    "amenity": "hospital",
    "name": "Gandhi Mission Trust L.C.Dani Eye Hospital",
    "source": "OpenGovernmentData"
  }
},
{
  "type": "node",
  "id": 7071685691,
  "lat": 23.2425631,
  "lon": 87.8596948,
  "tags": {
    "addr:district": "Bardhaman",
    "addr:full": "7,R.B. Ghosh Road, Khosbagan",
    "addr:postcode": "713101",
    "addr:state": "West Bengal",
    "amenity": "hospital",
    "healthcare": "hospital",
    "name": "B.C.C.U Hospital",
    "source": "OpenGovernmentData"
  }
},
{
  "type": "node",
  "id": 7074312504,
  "lat": 23.2423997,
  "lon": 87.8469667,
  "tags": {
    "addr:district": "Bardhaman",
    "addr:full": "Dr. Subodh Mukhopadhyay Sarani, Krishna Sayer South, Borehat - Kalitala",
    "addr:postcode": "713102",
    "addr:state": "West Bengal",
    "amenity": "hospital",
    "healthcare": "hospital",
    "name": "Subodh Sankar Sebayatan",
    "source": "OpenGovernmentData"
  }
},
{
  "type": "node",
  "id": 7074312645,
  "lat": 24.1874824,
  "lon": 87.7934057,
  "tags": {
    "addr:district": "Birbhum",
    "addr:full": "New Hospital Road, Rampurhat",
    "addr:postcode": "731224",
    "addr:state": "West Bengal",
    "amenity": "hospital",
    "name": "Dr.N.C. Dutta Memorial Hospital",
    "source": "OpenGovernmentData"
  }
},
{
  "type": "node",
  "id": 7074329091,
  "lat": 23.6973780,
  "lon": 86.9424842,
  "tags": {
    "addr:district": "Bardhaman",
    "addr:full": "G.T.Road, City Tower, Kumarpur,Near Manoj Talkies,OppositeGenexx Exotica",
    "addr:postcode": "713304",
    "addr:state": "West Bengal",
    "amenity": "hospital",
    "name": "Nayan Eye Hospital",
    "source": "OpenGovernmentData"
  }
},